latitude,longitude,date,county,state
44.555699,-113.369469,10/7/2011,Lemhi County,Idaho
38.9939375,-76.153401,10/31/2017,Queen Anne's County,Maryland
39.1479045,-79.659533,12/29/2000,Tucker County,West Virginia
43.088728,-120.145922,6/27/1989,Lake County,Oregon
45.6318155,-75.239771,12/19/2020,Papineau,Quebec
42.9201385,-94.248614,12/19/1984,Kossuth County,Iowa
35.042856,-97.011926,11/5/1987,Pottawatomie County,Oklahoma
39.685504,-99.933505,12/26/2018,Norton County,Kansas
39.3731445,-105.545073,3/20/2003,Park County,Colorado
44.80812,-120.750903,10/7/2007,Jefferson County,Oregon
40.447632,-90.421117,8/18/2023,Fulton County,Illinois
29.468061,-101.099167,7/14/2010,Acuña,Coahuila
38.8350605,-76.887049,11/6/2001,Prince George's County,Maryland
44.959505,-112.337366,11/14/2011,Beaverhead County,Montana
40.8894155,-96.471883,3/21/2014,Lancaster County,Nebraska
45.205691,-94.656412,4/14/2020,Meeker County,Minnesota
33.73841,-108.467318,12/3/2004,Catron County,New Mexico
43.9066885,-121.969129,11/8/2017,Lane County,Oregon
44.465357,-88.443729,10/7/2005,Outagamie County,Wisconsin
36.969533,-94.2583,8/14/1995,Newton County,Missouri
43.660424,-111.30911,11/5/2006,Teton County,Idaho
41.041976,-110.301695,5/9/1994,Uinta County,Wyoming
39.204609,-94.771466,3/20/1987,Platte County,Missouri
42.857476,-107.33589,2/24/1994,Natrona County,Wyoming
44.546494,-102.441067,10/15/2008,Meade County,South Dakota
42.2458975,-93.912321,4/17/1994,Hamilton County,Iowa
39.190962,-115.719882,10/21/2009,White Pine County,Nevada
31.3208925,-101.964735,1/16/2022,Upton County,Texas
33.3497685,-85.582446,2/10/2001,Randolph County,Alabama
36.662815,-78.97024,9/27/1989,Halifax County,Virginia
33.259856,-109.096282,4/1/2024,Greenlee County,Arizona
46.5508955,-119.632801,11/9/2001,Benton County,Washington
28.3152615,-113.69939,2/24/1997,Municipio de San Quintín,Baja California
42.1668925,-76.912631,1/10/1992,Chemung County,New York
31.2181795,-83.562463,3/15/2024,Colquitt County,Georgia
44.6578545,-71.246054,4/14/2020,Coös County,New Hampshire
33.6274155,-107.353067,9/16/1999,Socorro County,New Mexico
29.2123345,-108.692099,7/26/2010,Madera,Chihuahua
34.1633845,-78.01466,11/23/2020,Brunswick County,North Carolina
38.3069705,-105.852855,9/10/2006,Fremont County,Colorado
26.673307,-112.718622,9/23/2001,Municipio de Mulegé,Baja California Sur
46.64906,-118.241573,8/7/2007,Franklin County,Washington
26.6039505,-106.286903,11/25/2010,Balleza,Chihuahua
43.166357,-91.615366,6/14/1985,Winneshiek County,Iowa
29.77386,-101.349039,9/5/2010,Val Verde County,Texas
41.779553,-92.143079,10/10/2020,Iowa County,Iowa
35.427189,-115.019233,1/8/1998,Clark County,Nevada
39.647244,-104.169541,5/17/2007,Arapahoe County,Colorado
30.073979,-103.295882,11/1/2015,Brewster County,Texas
35.5278175,-102.989111,4/12/2008,Oldham County,Texas
45.399454,-74.026863,6/13/2000,Vaudreuil-Soulanges,Quebec
39.287949,-82.172175,9/4/2002,Athens County,Ohio
26.7915545,-113.667173,1/10/1999,Municipio de Mulegé,Baja California Sur
45.769854,-80.601025,4/9/1996,Parry Sound District,Ontario
45.236351,-102.59994,3/4/2008,Perkins County,South Dakota
36.4181675,-101.166741,12/31/2023,Hansford County,Texas
44.15563,-116.045204,5/25/2023,Boise County,Idaho
44.509342,-121.919212,12/12/2013,Linn County,Oregon
43.0510305,-105.165557,11/27/2015,Converse County,Wyoming
31.6144985,-91.359348,10/5/1996,Adams County,Mississippi
33.266853,-109.152626,7/30/1990,Greenlee County,Arizona
36.088239,-76.259785,3/10/2015,Perquimans County,North Carolina
39.596124,-92.554627,2/22/2015,Randolph County,Missouri
27.6179135,-105.534505,8/10/1999,Valle de Zaragoza,Chihuahua
30.830244,-84.511347,12/6/2021,Decatur County,Georgia
41.544169,-84.136016,10/28/1996,Fulton County,Ohio
31.336224,-85.1417,5/19/2016,Henry County,Alabama
36.0313805,-109.195327,6/14/2004,Apache County,Arizona
38.42562,-93.631832,4/21/2019,Henry County,Missouri
31.8644295,-102.374357,6/9/1996,Ector County,Texas
30.62567,-87.158144,12/26/1996,Santa Rosa County,Florida
41.9542895,-108.588707,6/30/1989,Sweetwater County,Wyoming
36.099559,-76.529353,11/9/2013,Perquimans County,North Carolina
36.9941735,-75.758756,7/26/1989,Virginia Beach (city),Virginia
44.332065,-113.654379,4/7/2021,Custer County,Idaho
31.027073,-81.868426,1/11/1999,Camden County,Georgia
31.020611,-105.078833,2/12/1986,Hudspeth County,Texas
42.4187455,-78.24656,8/24/1987,Allegany County,New York
39.792112,-86.636164,2/16/2004,Hendricks County,Indiana
30.0915135,-115.739213,10/20/1996,Municipio de San Quintín,Baja California
36.172952,-79.495933,5/14/2014,Alamance County,North Carolina
36.0930165,-83.129463,3/6/1989,Cocke County,Tennessee
42.717157,-109.326215,2/22/2019,Sublette County,Wyoming
45.4452045,-120.062564,2/11/1988,Gilliam County,Oregon
36.0336365,-105.64006,7/11/1999,Rio Arriba County,New Mexico
26.4321065,-112.255504,1/24/2013,Municipio de Comondú,Baja California Sur
29.92643,-85.486632,3/4/2013,Bay County,Florida
36.1233045,-106.919847,1/5/1989,Sandoval County,New Mexico
46.386332,-82.355572,6/14/2013,Algoma District,Ontario
41.182668,-123.675602,6/6/1999,Humboldt County,California
41.743766,-81.824175,6/20/1997,Cuyahoga County,Ohio
41.9901105,-82.532322,6/9/1988,Essex County,Ontario
39.842675,-92.186334,3/30/2014,Shelby County,Missouri
42.9750925,-102.891323,9/13/2017,Dawes County,Nebraska
37.587403,-96.077763,12/11/1997,Elk County,Kansas
40.5481825,-91.312943,3/22/2015,Hancock County,Illinois
43.542655,-83.528244,4/18/1991,Tuscola County,Michigan
29.9865775,-89.539423,12/1/2012,Saint Bernard Parish,Louisiana
46.4962525,-94.202756,7/11/2021,Crow Wing County,Minnesota
30.1387635,-89.649902,7/26/1987,Orleans Parish,Louisiana
37.245148,-116.615781,5/30/2004,Nye County,Nevada
36.0236205,-106.719981,4/7/1987,Rio Arriba County,New Mexico
44.682744,-118.028818,11/6/1995,Baker County,Oregon
43.184803,-72.159905,4/25/1988,Sullivan County,New Hampshire
39.2741635,-95.630425,7/28/2003,Jackson County,Kansas
29.6396205,-97.924132,8/13/2007,Guadalupe County,Texas
44.296735,-79.076902,4/18/2010,Durham Region,Ontario
45.406793,-111.704731,7/26/1996,Madison County,Montana
42.8712375,-72.753266,10/19/1986,Windham County,Vermont
43.9149595,-102.760291,1/6/2023,Pennington County,South Dakota
40.272248,-119.013056,9/24/2010,Pershing County,Nevada
43.1509795,-118.232734,2/29/2024,Harney County,Oregon
39.650992,-108.693109,12/9/2004,Garfield County,Colorado
41.80475,-115.662451,7/30/2015,Elko County,Nevada
27.7830535,-80.801522,10/13/1989,Indian River County,Florida
30.2989985,-100.682429,8/7/1993,Sutton County,Texas
46.3092635,-86.684042,4/23/1992,Alger County,Michigan
33.8698745,-115.071393,11/23/1985,Riverside County,California
36.802315,-95.436176,1/28/2021,Nowata County,Oklahoma
34.6236565,-94.542127,12/31/2022,Le Flore County,Oklahoma
43.682335,-94.973662,12/3/2012,Jackson County,Minnesota
40.304907,-111.939732,4/7/2020,Utah County,Utah
35.4299365,-116.05836,3/23/1995,San Bernardino County,California
36.9068005,-91.312452,3/1/2021,Shannon County,Missouri
43.997058,-111.570865,9/3/2017,Fremont County,Idaho
39.8682645,-76.151978,10/11/1993,Lancaster County,Pennsylvania
34.836603,-89.313261,5/1/2016,Marshall County,Mississippi
33.225526,-107.277171,3/2/1989,Sierra County,New Mexico
27.533816,-110.301194,5/17/2008,Guaymas,Sonora
27.0977875,-105.053004,7/24/1996,López,Chihuahua
34.3328375,-107.400881,3/17/2009,Socorro County,New Mexico
40.10924,-99.719547,11/29/2020,Furnas County,Nebraska
36.2057935,-83.205338,10/26/1994,Hamblen County,Tennessee
28.036527,-103.060818,1/2/2004,Ocampo,Coahuila
45.7146415,-89.306085,4/15/1985,Oneida County,Wisconsin
39.343137,-82.956468,6/2/1991,Ross County,Ohio
40.5613795,-101.926679,8/25/1990,Chase County,Nebraska
34.488972,-114.469601,9/16/2006,San Bernardino County,California
27.027089,-113.641327,3/3/1995,Municipio de Mulegé,Baja California Sur
40.2736345,-109.764903,9/28/2013,Uintah County,Utah
28.241622,-82.520944,11/30/2003,Pasco County,Florida
45.7233005,-100.498204,2/3/2020,Corson County,South Dakota
43.4209695,-96.576547,4/12/2010,Lincoln County,South Dakota
31.4578775,-83.898901,8/10/2017,Worth County,Georgia
29.2233255,-90.742796,6/8/2017,Terrebonne Parish,Louisiana
29.130921,-97.017125,11/5/2009,DeWitt County,Texas
30.9495,-86.822486,7/18/1994,Santa Rosa County,Florida
40.1166885,-78.569633,9/3/2016,Bedford County,Pennsylvania
36.003647,-103.820178,3/7/1990,Harding County,New Mexico
35.9355415,-120.939753,12/17/2003,Monterey County,California
36.243427,-95.620235,6/21/2009,Rogers County,Oklahoma
29.9410335,-98.398596,11/23/1994,Comal County,Texas
26.148655,-103.605212,4/3/2023,Tlahualilo,Durango
39.7839135,-88.467624,5/27/2012,Douglas County,Illinois
41.080005,-87.220179,6/16/2010,Jasper County,Indiana
26.0315945,-108.872349,7/20/2007,El Fuerte,Sinaloa
44.5354295,-74.637919,11/7/2006,Saint Lawrence County,New York
30.175356,-98.127418,8/28/2006,Hays County,Texas
38.6914355,-87.255134,8/20/2012,Daviess County,Indiana
41.8542285,-113.141138,11/9/2015,Box Elder County,Utah
37.540974,-101.659926,4/28/1995,Stanton County,Kansas
38.997616,-86.847632,6/19/2019,Greene County,Indiana
40.954055,-105.928416,10/31/2008,Larimer County,Colorado
41.778872,-114.876594,1/8/1992,Elko County,Nevada
43.8817005,-96.77642,5/26/1991,Moody County,South Dakota
45.7380125,-77.445085,1/1/1990,Renfrew County,Ontario
28.0738035,-109.837073,6/24/2000,Cajeme,Sonora
26.0926035,-98.313906,1/13/1985,Reynosa,Tamaulipas
41.7604515,-107.764705,2/7/2009,Sweetwater County,Wyoming
38.392971,-76.442749,6/28/2014,Calvert County,Maryland
39.2154145,-122.528728,7/31/1988,Colusa County,California
36.696777,-77.640918,9/4/2010,Greensville County,Virginia
32.580826,-114.083124,2/1/2024,Yuma County,Arizona
42.523404,-93.835301,4/26/2000,Hamilton County,Iowa
31.189822,-81.578565,6/23/2013,Glynn County,Georgia
34.9689005,-82.728257,7/29/1989,Pickens County,South Carolina
36.7451785,-90.854219,1/13/2010,Ripley County,Missouri
29.8809485,-104.146668,12/20/1994,Presidio County,Texas
43.643288,-84.453493,6/3/1990,Midland County,Michigan
43.0588795,-75.462214,7/5/2008,Oneida County,New York
44.960037,-76.188076,1/2/2010,Lanark County,Ontario
43.8596135,-102.798322,12/5/2020,Pennington County,South Dakota
38.2699795,-84.42519,7/29/1999,Bourbon County,Kentucky
46.998134,-88.686633,6/1/2002,Houghton County,Michigan
32.798038,-108.101082,9/26/2008,Grant County,New Mexico
29.5818625,-89.969661,8/24/2004,Plaquemines Parish,Louisiana
35.4015415,-117.673099,3/9/1988,Kern County,California
39.660673,-122.994322,9/15/2003,Mendocino County,California
44.21521,-72.802669,5/26/2020,Washington County,Vermont
35.6444745,-115.394993,11/18/2016,Clark County,Nevada
33.314779,-93.545097,3/18/2001,Lafayette County,Arkansas
39.7794725,-93.649787,2/21/2002,Livingston County,Missouri
44.786905,-120.038472,3/22/1998,Wheeler County,Oregon
29.7787935,-102.497302,7/31/2022,Acuña,Coahuila
46.223374,-99.788746,1/4/1993,McIntosh County,North Dakota
42.507847,-112.563172,10/6/2012,Power County,Idaho
34.12099,-114.63845,3/19/2024,San Bernardino County,California
40.53903,-75.558489,2/11/2000,Lehigh County,Pennsylvania
42.592548,-119.72461,6/8/2006,Lake County,Oregon
26.829094,-102.902359,6/16/2014,Cuatro Ciénegas,Coahuila
30.300394,-106.06485,7/4/1999,Ahumada,Chihuahua
41.2691055,-101.985471,11/24/1986,Keith County,Nebraska
44.953439,-94.570966,5/15/2023,Meeker County,Minnesota
26.8593515,-97.528096,6/19/2001,Kenedy County,Texas
43.4311745,-99.264816,11/3/2015,Gregory County,South Dakota
29.1694795,-96.708622,10/16/1989,Jackson County,Texas
31.068791,-83.607729,10/9/2002,Colquitt County,Georgia
30.9017635,-115.462329,7/24/1997,Municipio de Ensenada,Baja California
30.252894,-105.863996,7/1/2010,Ahumada,Chihuahua
44.467933,-111.029962,12/17/1991,Teton County,Wyoming
36.6195565,-90.745188,12/25/2018,Ripley County,Missouri
37.839354,-98.306223,4/29/2020,Reno County,Kansas
32.7884615,-111.558235,8/21/2011,Pinal County,Arizona
37.798786,-121.996894,8/26/1990,Contra Costa County,California
40.916818,-82.52306,2/20/2016,Richland County,Ohio
43.551592,-106.486167,8/23/1990,Johnson County,Wyoming
31.799679,-85.227377,6/16/1987,Barbour County,Alabama
31.9577455,-91.095321,6/13/2014,Claiborne County,Mississippi
27.7440515,-100.561272,2/26/1987,Juárez,Coahuila
32.9028515,-79.976882,1/30/2022,Charleston County,South Carolina
36.057647,-89.919824,8/28/1995,Pemiscot County,Missouri
45.7135535,-72.885636,8/22/2020,Les Maskoutains,Quebec
26.6871155,-104.891525,1/5/2008,Coronado,Chihuahua
44.1945455,-118.013292,9/26/2021,Malheur County,Oregon
46.1897355,-108.946423,8/9/1986,Golden Valley County,Montana
31.1172535,-103.764862,12/21/1994,Reeves County,Texas
39.4288585,-94.466033,10/17/1989,Clay County,Missouri
34.391919,-79.328385,4/17/2006,Dillon County,South Carolina
36.6635175,-85.215578,9/18/1984,Clinton County,Kentucky
46.580526,-90.71133,6/11/1990,Ashland County,Wisconsin
44.363252,-112.112856,6/19/2012,Clark County,Idaho
46.0474715,-78.47429,5/19/2007,Nipissing District,Ontario
33.776017,-92.523312,4/14/2024,Calhoun County,Arkansas
42.505818,-75.046516,12/26/2011,Otsego County,New York
42.309772,-70.817094,1/17/2020,Plymouth County,Massachusetts
41.6908105,-87.289866,6/25/1996,Lake County,Indiana
31.629991,-96.337642,9/13/2007,Freestone County,Texas
39.240412,-84.222583,11/28/1989,Clermont County,Ohio
36.245129,-114.424077,7/23/2002,Clark County,Nevada
40.6270165,-121.453662,7/29/1992,Shasta County,California
32.8371835,-94.821962,9/25/2008,Upshur County,Texas
35.011625,-79.427402,2/7/2004,Hoke County,North Carolina
46.439024,-72.110225,5/17/2021,Bécancour (MRC),Quebec
36.791848,-119.292426,3/24/2017,Fresno County,California
40.758637,-96.358387,12/11/2019,Otoe County,Nebraska
39.7494445,-101.578976,5/20/2018,Cheyenne County,Kansas
37.258068,-107.092921,12/30/2016,Archuleta County,Colorado
45.6487865,-98.029133,5/10/2008,Brown County,South Dakota
45.519761,-93.060441,9/1/1993,Isanti County,Minnesota
42.0712825,-89.192362,1/31/1989,Ogle County,Illinois
43.1718585,-92.97216,9/30/2004,Floyd County,Iowa
38.20946,-85.803595,10/19/1991,Jefferson County,Kentucky
29.886963,-104.384829,8/31/1984,Presidio County,Texas
34.339312,-101.898633,5/20/2021,Swisher County,Texas
46.4148815,-115.437166,9/30/2008,Idaho County,Idaho
37.232251,-94.008565,5/25/2022,Lawrence County,Missouri
45.292897,-123.981813,4/13/2020,Tillamook County,Oregon
37.3082995,-94.914091,1/25/1999,Cherokee County,Kansas
39.4024295,-110.025057,1/20/2015,Emery County,Utah
45.6845115,-92.081987,6/17/2005,Burnett County,Wisconsin
32.7412075,-113.708436,2/13/1994,Yuma County,Arizona
38.683568,-109.627912,9/2/2009,Grand County,Utah
42.2143055,-97.264703,2/3/2010,Wayne County,Nebraska
26.379073,-104.290048,9/16/2017,Mapimí,Durango
30.9061825,-83.229514,2/7/2021,Lowndes County,Georgia
45.657836,-76.221435,12/25/1990,Les Collines-de-l'Outaouais,Quebec
31.6644995,-82.7015,9/28/2011,Coffee County,Georgia
43.7782165,-110.888124,3/14/1988,Teton County,Wyoming
45.2939755,-102.179639,8/18/2001,Perkins County,South Dakota
41.791859,-105.974516,2/8/2016,Albany County,Wyoming
38.447189,-112.475631,5/15/2005,Piute County,Utah
35.2193565,-80.067156,1/20/2001,Montgomery County,North Carolina
33.4043005,-80.826002,2/3/1997,Orangeburg County,South Carolina
28.703403,-110.66193,6/29/2020,La Colorada,Sonora
41.183996,-97.357603,10/1/2002,Butler County,Nebraska
46.1005965,-111.416195,4/7/1999,Broadwater County,Montana
39.7079235,-76.59931,7/27/2005,Baltimore County,Maryland
28.9107415,-106.042764,6/12/2020,Aldama,Chihuahua
39.0685075,-98.588156,10/24/2001,Russell County,Kansas
33.6014935,-109.839748,3/12/2014,Apache County,Arizona
41.664982,-103.113841,4/30/1994,Morrill County,Nebraska
28.869275,-101.554919,7/23/1996,Zaragoza,Coahuila
39.4206515,-93.114666,6/28/1996,Chariton County,Missouri
33.149121,-98.686025,7/4/2011,Young County,Texas
42.893074,-124.439562,2/28/2017,Curry County,Oregon
42.2937045,-118.00334,1/27/1989,Malheur County,Oregon
32.040738,-104.495987,10/20/1989,Eddy County,New Mexico
34.1830525,-81.579091,10/13/1994,Newberry County,South Carolina
37.9449415,-120.804621,12/11/1986,Stanislaus County,California
35.7811715,-99.160935,6/14/2019,Custer County,Oklahoma
38.5585505,-89.511813,11/26/2018,Clinton County,Illinois
41.0329515,-98.829802,6/22/2008,Buffalo County,Nebraska
43.466267,-106.113386,2/26/1988,Natrona County,Wyoming
43.338921,-94.532597,2/26/2016,Emmet County,Iowa
30.2964375,-90.264069,2/20/2021,Tangipahoa Parish,Louisiana
34.0491705,-115.50652,8/9/1997,San Bernardino County,California
38.8529165,-91.196583,11/9/2013,Warren County,Missouri
34.843602,-104.370656,5/18/1999,Guadalupe County,New Mexico
40.8029295,-119.084922,12/21/2014,Pershing County,Nevada
42.497219,-106.049461,4/14/2004,Converse County,Wyoming
26.4968935,-98.772607,8/7/1985,Starr County,Texas
45.9197215,-114.905374,6/11/1993,Idaho County,Idaho
34.7779495,-82.420544,6/23/1992,Greenville County,South Carolina
32.094911,-94.619533,10/21/1985,Rusk County,Texas
37.2551,-101.333531,1/9/2019,Stevens County,Kansas
41.872547,-95.05835,2/17/2018,Carroll County,Iowa
39.432615,-121.536183,11/11/1995,Butte County,California
32.4356675,-91.497971,1/2/2019,Richland Parish,Louisiana
46.163583,-92.430409,1/9/2023,Pine County,Minnesota
39.258268,-85.210836,5/3/2023,Ripley County,Indiana
36.347225,-80.086057,1/9/2024,Stokes County,North Carolina
37.2052435,-110.331053,2/14/1996,San Juan County,Utah
34.5324225,-117.172109,9/1/2018,San Bernardino County,California
37.167579,-118.865355,10/13/2004,Fresno County,California
40.741401,-102.984172,10/20/2004,Logan County,Colorado
29.3414215,-83.151552,8/19/2003,Dixie County,Florida
37.7095765,-101.587076,11/5/2001,Stanton County,Kansas
40.4994735,-114.142367,3/1/2016,Elko County,Nevada
44.580005,-104.569585,7/31/2013,Crook County,Wyoming
31.8221025,-111.626083,5/10/1998,Pima County,Arizona
37.6006485,-89.371004,8/22/2020,Jackson County,Illinois
32.780534,-109.603642,2/18/1987,Graham County,Arizona
39.35912,-109.805526,11/4/2002,Grand County,Utah
45.8345725,-80.068999,8/22/1993,Parry Sound District,Ontario
30.712991,-108.157232,8/8/1990,Janos,Chihuahua
30.119174,-102.268453,7/17/1992,Terrell County,Texas
33.692881,-115.597321,2/20/1995,Riverside County,California
44.7046025,-70.716356,1/31/2019,Oxford County,Maine
46.893279,-119.516456,12/4/2000,Grant County,Washington
28.3127115,-96.981151,6/20/2012,Refugio County,Texas
33.248464,-105.410912,1/9/2006,Otero County,New Mexico
43.669993,-73.956277,11/4/2006,Warren County,New York
45.433488,-101.167205,5/2/2019,Dewey County,South Dakota
35.9737455,-102.448038,3/29/2013,Hartley County,Texas
34.604175,-96.318573,1/13/2024,Coal County,Oklahoma
38.95828,-104.486822,2/27/2001,El Paso County,Colorado
29.986326,-104.132507,8/15/2003,Presidio County,Texas
31.343612,-82.133893,7/5/2008,Pierce County,Georgia
37.54566,-100.959816,7/23/1987,Haskell County,Kansas
35.3769515,-94.244541,11/1/1989,Crawford County,Arkansas
46.76061,-110.321705,1/2/2013,Judith Basin County,Montana
43.460876,-112.708708,6/26/2018,Bingham County,Idaho
43.108161,-109.171066,1/9/2001,Fremont County,Wyoming
32.6291955,-106.017678,11/23/2007,Otero County,New Mexico
31.6063995,-87.551951,7/10/1995,Monroe County,Alabama
29.854792,-99.087872,4/3/2010,Bandera County,Texas
40.2208445,-97.482916,2/11/2012,Thayer County,Nebraska
44.897244,-89.215532,5/23/2001,Shawano County,Wisconsin
45.0527335,-88.183878,4/16/1994,Oconto County,Wisconsin
35.6478555,-107.533081,1/11/1988,McKinley County,New Mexico
29.6679085,-111.746787,3/24/2021,Pitiquito,Sonora
33.587532,-111.118531,7/30/2000,Maricopa County,Arizona
31.049791,-100.053696,6/20/2007,Menard County,Texas
41.4756575,-104.884192,7/29/2006,Laramie County,Wyoming
29.215078,-96.12307,9/19/2017,Wharton County,Texas
36.8634965,-91.203513,12/13/2008,Carter County,Missouri
30.250042,-112.774481,9/26/2005,Caborca,Sonora
40.9736205,-111.935613,11/25/1996,Davis County,Utah
35.9314625,-117.036799,9/27/2002,Inyo County,California
30.1942185,-114.985645,2/1/2005,Municipio de San Quintín,Baja California
40.805476,-121.777536,11/20/2005,Shasta County,California
36.007725,-94.336118,4/6/2008,Washington County,Arkansas
39.5212745,-75.782524,9/22/2007,Cecil County,Maryland
45.9134855,-79.652198,4/10/2015,Parry Sound District,Ontario
34.2716785,-93.202771,3/23/2017,Clark County,Arkansas
46.7073385,-107.46125,11/16/2006,Rosebud County,Montana
40.081416,-107.79602,4/30/2013,Rio Blanco County,Colorado
35.3778105,-109.069787,8/20/1993,Apache County,Arizona
32.1293825,-101.309606,6/12/2005,Howard County,Texas
43.271311,-91.225258,4/27/2008,Allamakee County,Iowa
31.400829,-81.860403,1/20/2023,Wayne County,Georgia
45.135351,-99.323262,9/26/2018,Faulk County,South Dakota
28.2940945,-113.754571,11/22/2017,Municipio de San Quintín,Baja California
40.3252815,-86.929928,6/26/1993,Tippecanoe County,Indiana
32.898818,-112.963802,8/7/2013,Maricopa County,Arizona
43.78898,-76.271351,4/1/2002,Jefferson County,New York
42.4871435,-89.342045,2/15/1998,Winnebago County,Illinois
45.1876125,-123.639337,4/23/2019,Yamhill County,Oregon
36.5248525,-103.625953,12/31/2007,Union County,New Mexico
34.1654485,-100.632006,9/14/2012,Motley County,Texas
27.699053,-101.149052,9/18/2010,Sabinas,Coahuila
31.3927425,-82.40733,1/22/2021,Pierce County,Georgia
44.4867795,-119.501225,7/12/1996,Grant County,Oregon
36.6094075,-121.99876,7/7/2006,Monterey County,California
33.0221335,-108.989105,11/30/2015,Grant County,New Mexico
34.2142535,-92.893966,9/9/2006,Hot Spring County,Arkansas
41.4528815,-118.153891,4/10/2007,Humboldt County,Nevada
38.875573,-99.103008,11/22/2003,Ellis County,Kansas
28.2036695,-97.249107,6/4/2013,Refugio County,Texas
42.7773735,-100.983075,11/26/2022,Cherry County,Nebraska
45.0334985,-74.646639,2/16/2009,"Stormont, Dundas and Glengarry Counties",Ontario
28.3990315,-100.038558,7/11/2019,Dimmit County,Texas
34.205438,-104.08524,9/1/1987,De Baca County,New Mexico
42.744937,-114.256302,5/11/2010,Jerome County,Idaho
37.359242,-91.954678,12/23/2008,Texas County,Missouri
35.395518,-91.270399,4/19/1991,Woodruff County,Arkansas
40.448772,-95.633968,10/25/2001,Atchison County,Missouri
39.6341945,-110.552091,7/12/2008,Carbon County,Utah
40.8863145,-73.446987,9/4/2005,Suffolk County,New York
36.0472145,-84.599565,6/13/2000,Morgan County,Tennessee
39.68908,-80.03095,3/27/2012,Monongalia County,West Virginia
38.2727985,-102.514412,7/31/2002,Kiowa County,Colorado
46.4789265,-77.799567,11/10/1988,Témiscamingue,Quebec
30.2571955,-111.638423,1/11/1992,Trincheras,Sonora
46.5780955,-94.947502,2/1/1993,Wadena County,Minnesota
38.6335135,-98.922588,10/19/2003,Barton County,Kansas
45.183633,-99.720071,1/3/2018,Potter County,South Dakota
44.5932025,-97.259018,10/5/2002,Hamlin County,South Dakota
40.871694,-122.577342,7/11/1985,Shasta County,California
36.1560485,-88.12609,5/20/2007,Benton County,Tennessee
43.761337,-72.950286,1/31/2022,Rutland County,Vermont
44.765574,-108.721441,7/28/2004,Park County,Wyoming
41.325442,-98.323856,1/18/1999,Howard County,Nebraska
43.9462705,-95.093264,8/2/2006,Cottonwood County,Minnesota
43.992749,-100.674434,9/9/2005,Jones County,South Dakota
37.0488675,-97.176354,2/1/2003,Sumner County,Kansas
43.7287535,-91.644624,3/8/2007,Houston County,Minnesota
30.774164,-96.292,2/26/2000,Brazos County,Texas
44.236754,-91.717915,12/15/1987,Buffalo County,Wisconsin
39.6952215,-80.4137,9/17/2017,Wetzel County,West Virginia
39.8029885,-108.400134,1/10/1990,Rio Blanco County,Colorado
36.1521135,-121.537314,7/30/2005,Monterey County,California
37.0045525,-82.460067,10/29/1986,Wise County,Virginia
30.323996,-84.281102,12/27/1991,Leon County,Florida
42.107882,-112.057617,4/1/2020,Franklin County,Idaho
27.4138825,-108.3235,9/16/2000,Guazapares,Chihuahua
36.207325,-98.94694,7/11/1985,Major County,Oklahoma
40.0653115,-84.1398,12/5/2005,Miami County,Ohio
44.2949635,-100.475379,3/11/1992,Stanley County,South Dakota
43.5926605,-105.084762,7/25/2001,Campbell County,Wyoming
37.000515,-106.496227,6/28/2022,Archuleta County,Colorado
33.2070665,-116.691004,11/12/1997,San Diego County,California
29.844421,-81.472455,10/11/2007,Saint Johns County,Florida
32.672388,-94.541407,2/2/2017,Harrison County,Texas
40.2854445,-105.939997,7/28/2009,Grand County,Colorado
39.5890815,-84.794264,2/14/2024,Preble County,Ohio
29.2366665,-94.796245,4/20/2007,Galveston County,Texas
28.7804305,-96.945141,3/12/2006,Victoria County,Texas
44.204715,-71.045715,6/15/1999,Carroll County,New Hampshire
30.959658,-94.728857,9/23/1988,Polk County,Texas
35.8700205,-77.158301,6/7/2015,Martin County,North Carolina
36.0460705,-89.572125,2/19/2022,Dyer County,Tennessee
37.0353485,-110.354804,3/24/2021,San Juan County,Utah
38.800661,-104.203471,7/4/2017,El Paso County,Colorado
40.939343,-112.628941,8/28/2003,Tooele County,Utah
28.780049,-80.791884,5/15/2015,Brevard County,Florida
42.3894165,-119.636835,4/7/2002,Lake County,Oregon
39.825242,-109.712829,11/28/1995,Uintah County,Utah
36.0041575,-75.584244,9/29/1988,Dare County,North Carolina
41.404095,-99.175391,5/11/2021,Valley County,Nebraska
42.5547425,-107.887475,2/4/2011,Fremont County,Wyoming
35.480505,-78.707625,10/16/2010,Harnett County,North Carolina
34.289127,-78.208637,4/23/1991,Columbus County,North Carolina
34.9766515,-104.502221,9/5/2002,Guadalupe County,New Mexico
33.10949,-113.543046,2/13/2020,Yuma County,Arizona
34.0335595,-109.496006,9/11/2001,Apache County,Arizona
44.459066,-74.327763,3/31/2000,Franklin County,New York
32.2309285,-82.569759,12/18/2013,Montgomery County,Georgia
43.313616,-89.595632,9/20/2001,Columbia County,Wisconsin
43.153938,-122.548268,8/3/2019,Douglas County,Oregon
45.8926425,-81.273563,11/18/2009,Sudbury District,Ontario
26.981627,-105.679813,4/18/2001,Hidalgo del Parral,Chihuahua
46.697024,-99.636671,11/6/1990,Kidder County,North Dakota
40.643897,-124.130663,3/25/1994,Humboldt County,California
31.6954015,-82.307308,7/25/2022,Appling County,Georgia
36.4146655,-93.779488,1/8/1989,Carroll County,Arkansas
37.358173,-96.572485,12/16/2023,Cowley County,Kansas
46.462513,-72.235425,5/19/1986,Bécancour (MRC),Quebec
32.6229525,-98.600758,11/18/2019,Stephens County,Texas
41.8396265,-71.776226,8/23/2020,Providence County,Rhode Island
39.3409825,-82.968535,2/6/1998,Ross County,Ohio
41.6935485,-73.726522,3/13/2006,Dutchess County,New York
31.8165745,-105.144844,10/25/2003,Hudspeth County,Texas
43.571315,-101.559373,7/15/1989,Jackson County,South Dakota
31.1857365,-85.207722,1/30/2000,Houston County,Alabama
42.682329,-115.749524,3/27/2017,Owyhee County,Idaho
42.7471735,-92.649872,6/5/1987,Butler County,Iowa
35.744527,-109.221875,11/26/1994,Apache County,Arizona
43.9036715,-102.474444,6/7/1992,Pennington County,South Dakota
30.5717535,-91.904066,4/22/1989,St. Landry Parish,Louisiana
34.131488,-103.329674,1/17/1993,Roosevelt County,New Mexico
40.1263405,-103.5578,11/24/2009,Morgan County,Colorado
31.8035155,-102.770671,11/26/1998,Ector County,Texas
29.276335,-114.883697,7/27/2017,Municipio de San Quintín,Baja California
32.3736515,-97.026795,11/4/1984,Ellis County,Texas
31.6061585,-100.351257,1/31/2013,Tom Green County,Texas
33.204452,-86.368131,1/22/2004,Talladega County,Alabama
41.035292,-78.647984,3/26/2001,Clearfield County,Pennsylvania
33.496335,-97.77488,7/8/2022,Montague County,Texas
41.5396385,-91.205725,8/5/2016,Muscatine County,Iowa
39.704951,-112.773717,6/17/1984,Juab County,Utah
28.372927,-102.967966,12/19/1984,Ocampo,Coahuila
42.6222535,-76.285052,4/18/1986,Tompkins County,New York
41.558974,-108.497889,2/3/1985,Sweetwater County,Wyoming
38.276008,-108.687864,7/24/2004,Montrose County,Colorado
43.871363,-74.403285,11/6/2003,Hamilton County,New York
32.011161,-112.919657,9/5/1985,Pima County,Arizona
46.1889425,-80.515159,2/22/2021,Sudbury District,Ontario
44.7484285,-109.928545,5/15/2000,Park County,Wyoming
31.948499,-83.438224,3/26/2023,Wilcox County,Georgia
43.4071885,-75.585613,12/13/2019,Oneida County,New York
38.460247,-80.728276,5/24/2001,Nicholas County,West Virginia
46.549913,-90.666184,6/6/2010,Ashland County,Wisconsin
42.0569785,-124.155425,11/26/2017,Curry County,Oregon
26.371615,-108.782763,8/9/2019,El Fuerte,Sinaloa
36.3916195,-114.957788,8/3/1997,Clark County,Nevada
45.421823,-101.637118,12/24/2008,Ziebach County,South Dakota
36.842402,-98.11337,2/3/1992,Alfalfa County,Oklahoma
35.1138485,-106.535722,8/19/1987,Bernalillo County,New Mexico
34.2401335,-112.010353,10/4/2006,Yavapai County,Arizona
42.761442,-100.035511,11/2/1990,Brown County,Nebraska
45.0216,-94.765503,11/3/2014,Kandiyohi County,Minnesota
35.089469,-113.066035,3/5/2021,Yavapai County,Arizona
41.602973,-73.942848,2/4/2003,Dutchess County,New York
44.3608755,-123.568856,5/2/1996,Benton County,Oregon
36.291782,-113.440744,8/11/1994,Mohave County,Arizona
34.9195945,-96.189904,1/3/2004,Hughes County,Oklahoma
26.660824,-107.470333,5/26/2007,Morelos,Chihuahua
40.2763295,-113.863682,10/8/2002,Tooele County,Utah
36.686314,-87.929788,2/3/1987,Trigg County,Kentucky
43.210187,-84.493206,8/7/1988,Gratiot County,Michigan
46.774269,-98.64143,12/7/2005,Stutsman County,North Dakota
29.0633805,-82.09222,1/31/2016,Marion County,Florida
43.583372,-97.409489,8/13/2023,McCook County,South Dakota
41.521267,-73.554736,9/21/1999,Putnam County,New York
45.396784,-86.868291,1/10/2017,Door County,Wisconsin
41.297536,-104.852767,1/23/2014,Laramie County,Wyoming
45.8189135,-123.875821,12/16/2011,Clatsop County,Oregon
42.776508,-71.234799,6/18/2017,Rockingham County,New Hampshire
46.835526,-101.476335,3/12/2003,Morton County,North Dakota
46.294642,-71.55637,3/4/1996,L'Érable,Quebec
41.61907,-89.86816,12/10/2010,Whiteside County,Illinois
36.332509,-101.812708,4/10/2014,Sherman County,Texas
43.2053525,-102.94344,9/14/1984,Oglala Lakota County,South Dakota
33.4636215,-94.921345,8/21/2013,Red River County,Texas
38.322526,-85.515202,6/6/2008,Oldham County,Kentucky
46.0212415,-80.775374,5/14/2013,Sudbury District,Ontario
42.5931965,-115.272241,10/13/1998,Owyhee County,Idaho
39.220903,-111.47584,5/23/2013,Sanpete County,Utah
43.368992,-106.432328,4/1/1999,Natrona County,Wyoming
40.5084435,-95.216017,4/26/1987,Atchison County,Missouri
30.9932905,-103.925171,9/28/2006,Reeves County,Texas
39.998489,-116.154182,3/22/2005,Eureka County,Nevada
35.3268425,-87.633461,2/28/1987,Wayne County,Tennessee
29.0435,-112.060166,7/24/1996,Hermosillo,Sonora
40.2745885,-92.721528,3/29/2023,Adair County,Missouri
44.1776825,-80.203243,6/25/2008,Dufferin County,Ontario
31.407871,-101.005701,9/18/2013,Irion County,Texas
33.7794815,-108.982721,2/13/2020,Catron County,New Mexico
43.3209535,-111.939982,7/29/2019,Bingham County,Idaho
37.8960385,-78.088349,1/12/1998,Fluvanna County,Virginia
45.351807,-84.108933,1/9/2016,Presque Isle County,Michigan
40.113832,-95.332702,8/5/2004,Holt County,Missouri
33.3451855,-103.89015,8/22/2002,Chaves County,New Mexico
30.171988,-109.226247,11/15/1985,Villa Hidalgo,Sonora
38.0622495,-80.45871,2/20/2023,Greenbrier County,West Virginia
42.43116,-108.734788,10/16/2018,Fremont County,Wyoming
34.266478,-112.742737,8/19/2013,Yavapai County,Arizona
37.04127,-113.179477,3/6/2023,Washington County,Utah
45.426663,-96.471365,12/29/1996,Big Stone County,Minnesota
44.696155,-115.875652,2/21/2014,Valley County,Idaho
45.557717,-122.692324,3/15/1990,Multnomah County,Oregon
42.3855405,-102.929499,5/19/2021,Box Butte County,Nebraska
40.474888,-111.527901,8/27/2011,Wasatch County,Utah
45.639363,-100.691988,3/25/2018,Corson County,South Dakota
37.911345,-82.151164,7/6/2013,Logan County,West Virginia
32.1001215,-94.769644,11/11/1985,Rusk County,Texas
43.0244925,-78.408949,6/2/2006,Genesee County,New York
41.476245,-100.385395,9/15/1991,Logan County,Nebraska
44.4289095,-111.936032,1/22/2015,Clark County,Idaho
32.7818845,-115.462984,6/29/1995,Imperial County,California
39.227981,-79.869169,4/26/2010,Barbour County,West Virginia
41.130297,-99.842359,7/14/1989,Custer County,Nebraska
46.712864,-76.695343,3/14/2012,La Vallée-de-la-Gatineau,Quebec
34.639382,-91.105596,2/14/2016,Monroe County,Arkansas
33.617744,-115.26521,2/16/1985,Riverside County,California
33.422905,-110.644285,7/19/2002,Gila County,Arizona
44.986287,-93.378115,12/26/2002,Hennepin County,Minnesota
32.157933,-90.413033,9/3/2013,Hinds County,Mississippi
30.6469585,-112.890884,2/25/1991,Caborca,Sonora
34.978744,-99.568001,4/13/2014,Greer County,Oklahoma
33.347084,-110.183215,9/30/1994,Graham County,Arizona
36.5531105,-107.302807,1/9/1999,Rio Arriba County,New Mexico
38.3105705,-107.433737,6/11/2010,Gunnison County,Colorado
39.3150085,-81.790126,3/4/2015,Washington County,Ohio
35.3112415,-104.937195,3/7/2012,San Miguel County,New Mexico
43.2227475,-102.939841,3/29/1995,Oglala Lakota County,South Dakota
30.196355,-81.344299,1/21/2019,Saint Johns County,Florida
34.1653675,-111.643536,8/4/2012,Gila County,Arizona
30.3471185,-95.793339,12/21/2008,Montgomery County,Texas
45.778635,-93.887042,2/21/2015,Benton County,Minnesota
34.6176135,-83.329493,7/26/2023,Stephens County,Georgia
30.041687,-115.064274,2/11/1996,Municipio de San Quintín,Baja California
36.593645,-116.868932,10/25/2002,Inyo County,California
36.4809895,-105.511519,6/21/2012,Taos County,New Mexico
45.9849455,-81.434623,6/27/2020,Sudbury District,Ontario
37.776573,-99.400573,10/28/2021,Edwards County,Kansas
45.9105825,-117.005507,6/28/1996,Wallowa County,Oregon
41.458189,-116.096466,9/8/2001,Elko County,Nevada
37.6225795,-95.658757,6/3/1991,Wilson County,Kansas
41.798117,-103.573511,9/30/1985,Scotts Bluff County,Nebraska
41.5332195,-122.000831,7/3/2019,Siskiyou County,California
41.6599225,-110.151399,8/9/2020,Lincoln County,Wyoming
40.928882,-76.784413,9/8/1993,Northumberland County,Pennsylvania
34.530062,-98.673629,3/3/1999,Comanche County,Oklahoma
37.3201265,-82.357173,12/1/2000,Pike County,Kentucky
37.831932,-105.538883,5/23/2021,Saguache County,Colorado
40.3142585,-92.802548,6/3/2019,Adair County,Missouri
35.8250915,-92.257588,5/24/2009,Stone County,Arkansas
41.9488025,-110.034341,3/6/2018,Sweetwater County,Wyoming
39.6618825,-83.605974,1/29/2014,Fayette County,Ohio
46.450489,-108.880748,9/3/2021,Golden Valley County,Montana
38.8628155,-110.413296,7/23/1999,Emery County,Utah
40.9520455,-118.897354,12/16/1990,Pershing County,Nevada
37.6346055,-79.861752,12/4/2021,Botetourt County,Virginia
38.5294275,-98.610859,3/29/2011,Barton County,Kansas
38.60731,-104.185347,3/9/2003,El Paso County,Colorado
46.619236,-72.197336,11/28/2002,Les Chenaux,Quebec
38.583905,-84.478829,8/19/2000,Pendleton County,Kentucky
45.9984995,-112.107641,6/9/1989,Jefferson County,Montana
37.472439,-99.769572,7/25/2008,Ford County,Kansas
38.1577375,-76.500071,11/2/2002,Saint Mary's County,Maryland
45.161668,-95.268974,5/31/1999,Swift County,Minnesota
44.296305,-110.62294,3/11/2015,Teton County,Wyoming
39.748072,-76.779949,5/19/2007,York County,Pennsylvania
43.04764,-114.967001,10/26/2013,Gooding County,Idaho
43.4630325,-94.679998,5/9/2011,Emmet County,Iowa
42.3439705,-102.422566,3/25/2018,Sheridan County,Nebraska
44.1913725,-99.374057,10/7/1988,Buffalo County,South Dakota
33.850945,-95.902921,9/16/2008,Fannin County,Texas
34.862078,-96.904591,5/30/1990,Pontotoc County,Oklahoma
43.3377425,-86.138387,7/29/2001,Muskegon County,Michigan
27.5089165,-110.542238,4/13/2008,San Ignacio Río Muerto,Sonora
32.236767,-91.963075,2/16/2014,Richland Parish,Louisiana
33.2026365,-104.51764,3/10/2011,Chaves County,New Mexico
33.5921275,-100.915324,7/9/2007,Dickens County,Texas
46.7276595,-97.750892,2/17/1995,Barnes County,North Dakota
32.031004,-102.332005,8/19/1999,Ector County,Texas
34.1520035,-92.779862,6/11/1987,Hot Spring County,Arkansas
35.458188,-79.345108,12/12/1996,Lee County,North Carolina
45.590652,-107.754075,6/1/1987,Big Horn County,Montana
43.4335025,-103.6426,8/29/2000,Fall River County,South Dakota
43.2072775,-111.818074,8/22/1990,Bingham County,Idaho
41.7983035,-87.799818,11/19/1991,Cook County,Illinois
38.020804,-86.407611,7/12/2013,Meade County,Kentucky
36.9025135,-117.258835,5/9/1999,Inyo County,California
41.1498395,-79.445842,3/12/1988,Clarion County,Pennsylvania
32.580838,-98.333817,10/9/1988,Palo Pinto County,Texas
40.735761,-111.378313,8/18/2014,Summit County,Utah
31.957558,-114.010572,5/7/1999,San Luis Río Colorado,Sonora
43.1206335,-110.344337,10/2/2015,Sublette County,Wyoming
38.7454895,-102.582689,5/11/2003,Cheyenne County,Colorado
30.192519,-97.605809,5/11/1999,Travis County,Texas
38.9773955,-123.038799,9/28/2021,Mendocino County,California
41.7255345,-106.009392,6/22/1992,Albany County,Wyoming
45.3531455,-83.730836,1/11/2009,Presque Isle County,Michigan
45.1194305,-110.062721,12/11/2017,Park County,Montana
36.519311,-108.762689,7/13/1994,Apache County,Arizona
46.7874245,-115.773746,7/7/1984,Clearwater County,Idaho
36.9865445,-112.394244,11/15/2020,Coconino County,Arizona
35.01275,-87.979085,2/13/2006,Wayne County,Tennessee
41.652202,-93.292404,8/14/2018,Jasper County,Iowa
45.473991,-121.950992,12/14/2018,Multnomah County,Oregon
37.722886,-81.485653,1/28/2016,Wyoming County,West Virginia
43.573079,-88.518829,7/27/2019,Dodge County,Wisconsin
44.3130645,-109.245695,7/6/1997,Park County,Wyoming
40.080854,-87.182733,8/25/1986,Fountain County,Indiana
36.6941155,-117.207092,11/29/2004,Inyo County,California
30.6219265,-104.457383,5/21/2010,Jeff Davis County,Texas
38.1320365,-114.409066,4/10/1998,Lincoln County,Nevada
41.565061,-77.918744,2/5/1987,Potter County,Pennsylvania
41.053487,-104.859518,2/22/2020,Laramie County,Wyoming
37.0331805,-109.766238,8/6/2015,San Juan County,Utah
46.946854,-121.629088,2/17/2017,Pierce County,Washington
36.21355,-119.504291,8/23/2017,Tulare County,California
45.9822655,-120.14114,11/28/2017,Klickitat County,Washington
29.712793,-94.912413,8/11/2012,Chambers County,Texas
29.3473775,-100.081418,4/26/1986,Uvalde County,Texas
46.307193,-107.975004,5/30/1992,Yellowstone County,Montana
31.070056,-105.409845,11/3/2014,Hudspeth County,Texas
44.08929,-118.577844,1/13/2004,Grant County,Oregon
27.384792,-104.070937,10/8/2019,Jiménez,Chihuahua
43.5245445,-105.375553,5/8/1989,Campbell County,Wyoming
37.7609225,-111.009688,4/10/2015,Garfield County,Utah
38.411658,-81.263017,1/3/2007,Clay County,West Virginia
30.692211,-89.484666,3/25/1987,Pearl River County,Mississippi
44.232897,-106.979703,2/13/2006,Johnson County,Wyoming
29.822304,-95.599681,1/17/2003,Harris County,Texas
42.8691575,-81.310061,2/13/1990,Middlesex County,Ontario
44.526317,-96.842292,8/24/1996,Brookings County,South Dakota
46.7018425,-121.910052,7/1/1998,Lewis County,Washington
37.192536,-91.935289,12/5/1996,Texas County,Missouri
43.969081,-71.177608,6/6/1992,Carroll County,New Hampshire
34.683051,-91.061165,4/28/2007,Monroe County,Arkansas
38.755869,-100.41584,9/4/2012,Gove County,Kansas
28.492467,-96.454307,10/24/2010,Calhoun County,Texas
42.5920705,-100.802686,3/12/2005,Cherry County,Nebraska
44.814765,-114.913765,7/14/1995,Valley County,Idaho
36.6866525,-86.555255,3/12/2015,Simpson County,Kentucky
35.4079795,-91.79767,6/30/2020,White County,Arkansas
34.704963,-116.003689,5/20/2000,San Bernardino County,California
41.262763,-86.364593,12/2/1995,Marshall County,Indiana
39.0359225,-104.353682,12/6/1989,El Paso County,Colorado
37.8336495,-75.470802,11/13/1996,Accomack County,Virginia
44.1504195,-77.413358,1/20/1993,Belleville,Ontario
42.6544065,-87.06349,10/31/2014,Kenosha County,Wisconsin
38.0123745,-115.742673,5/18/2000,Lincoln County,Nevada
46.8607745,-90.84701,6/20/2011,Bayfield County,Wisconsin
45.3748185,-93.837955,11/24/2005,Sherburne County,Minnesota
37.441763,-117.280111,1/14/2009,Esmeralda County,Nevada
40.102675,-77.872207,10/5/2001,Huntingdon County,Pennsylvania
28.803908,-96.789111,6/4/2008,Victoria County,Texas
34.807232,-102.909832,8/14/2022,Deaf Smith County,Texas
36.011163,-111.720815,6/12/1986,Coconino County,Arizona
43.6126495,-83.739555,1/12/1996,Bay County,Michigan
29.60249,-82.941929,8/7/2023,Gilchrist County,Florida
45.366048,-115.831765,1/15/1999,Idaho County,Idaho
36.3453445,-93.347923,8/7/2016,Carroll County,Arkansas
41.3250355,-81.747729,6/16/1991,Cuyahoga County,Ohio
45.601236,-88.842993,1/17/2020,Forest County,Wisconsin
30.099937,-85.640477,8/25/2020,Bay County,Florida
27.063393,-97.836329,3/28/2024,Kenedy County,Texas
30.1957,-99.2364,10/26/1985,Gillespie County,Texas
36.5363695,-76.771454,10/16/2023,Gates County,North Carolina
39.46002,-97.020932,4/20/2008,Clay County,Kansas
37.6998615,-88.913698,4/21/2006,Williamson County,Illinois
38.7409485,-109.641802,8/10/2001,Grand County,Utah
41.757967,-98.766144,10/27/1988,Garfield County,Nebraska
38.858583,-88.51744,11/7/2006,Clay County,Illinois
37.348227,-115.796669,7/14/2014,Lincoln County,Nevada
39.822194,-101.044812,9/14/2019,Rawlins County,Kansas
36.1809355,-112.781168,4/27/2013,Coconino County,Arizona
29.966139,-97.068724,8/24/2020,Fayette County,Texas
46.8796925,-71.241329,7/20/2011,Urban agglomeration of Québec,Quebec
42.220127,-94.016651,4/26/1988,Webster County,Iowa
40.0138195,-91.746861,4/20/2015,Lewis County,Missouri
37.546688,-98.304829,7/6/2015,Kingman County,Kansas
32.426757,-111.125516,9/23/1989,Pima County,Arizona
42.6247595,-114.106973,9/26/2016,Jerome County,Idaho
36.2107605,-89.119474,12/15/1990,Obion County,Tennessee
28.0062185,-80.782137,9/8/2018,Brevard County,Florida
29.4815205,-111.209125,7/2/2007,Hermosillo,Sonora
38.9048255,-102.217592,5/5/2022,Cheyenne County,Colorado
39.912248,-83.192949,2/1/1996,Franklin County,Ohio
44.555699,-113.369469,10/7/2011,Lemhi County,Idaho
44.555699,-113.369469,10/7/2011,Lemhi County,Idaho
44.555699,-113.369469,10/7/2011,Lemhi County,Idaho
44.555699,-113.369469,10/7/2011,Lemhi County,Idaho
44.555699,-113.369469,10/7/2011,Lemhi County,Idaho
44.555699,-113.369469,10/7/2011,Lemhi County,Idaho
44.555699,-113.369469,10/7/2011,Lemhi County,Idaho
44.555699,-113.369469,10/7/2011,Lemhi County,Idaho
44.555699,-113.369469,10/7/2011,Lemhi County,Idaho
44.555699,-113.369469,10/7/2011,Lemhi County,Idaho
44.555699,-113.369469,10/7/2011,Lemhi County,Idaho
44.555699,-113.369469,10/7/2011,Lemhi County,Idaho
44.555699,-113.369469,10/7/2011,Lemhi County,Idaho
44.555699,-113.369469,10/7/2011,Lemhi County,Idaho
44.555699,-113.369469,10/7/2011,Lemhi County,Idaho
44.555699,-113.369469,10/7/2011,Lemhi County,Idaho
44.555699,-113.369469,10/7/2011,Lemhi County,Idaho
44.555699,-113.369469,10/7/2011,Lemhi County,Idaho
44.555699,-113.369469,10/7/2011,Lemhi County,Idaho
44.555699,-113.369469,10/7/2011,Lemhi County,Idaho
44.555699,-113.369469,10/7/2011,Lemhi County,Idaho
44.555699,-113.369469,10/7/2011,Lemhi County,Idaho
44.555699,-113.369469,10/7/2011,Lemhi County,Idaho
44.555699,-113.369469,10/7/2011,Lemhi County,Idaho
44.555699,-113.369469,10/7/2011,Lemhi County,Idaho
44.555699,-113.369469,10/7/2011,Lemhi County,Idaho
44.555699,-113.369469,10/7/2011,Lemhi County,Idaho
42.9201385,-94.248614,12/19/1984,Kossuth County,Iowa
42.9201385,-94.248614,12/19/1984,Kossuth County,Iowa
42.9201385,-94.248614,12/19/1984,Kossuth County,Iowa
42.9201385,-94.248614,12/19/1984,Kossuth County,Iowa
42.9201385,-94.248614,12/19/1984,Kossuth County,Iowa
42.9201385,-94.248614,12/19/1984,Kossuth County,Iowa
42.9201385,-94.248614,12/19/1984,Kossuth County,Iowa
42.9201385,-94.248614,12/19/1984,Kossuth County,Iowa
42.9201385,-94.248614,12/19/1984,Kossuth County,Iowa
42.9201385,-94.248614,12/19/1984,Kossuth County,Iowa
40.447632,-90.421117,8/18/2023,Fulton County,Illinois
40.447632,-90.421117,8/18/2023,Fulton County,Illinois
40.447632,-90.421117,8/18/2023,Fulton County,Illinois
40.447632,-90.421117,8/18/2023,Fulton County,Illinois
40.447632,-90.421117,8/18/2023,Fulton County,Illinois
40.447632,-90.421117,8/18/2023,Fulton County,Illinois
45.205691,-94.656412,4/14/2020,Meeker County,Minnesota
45.205691,-94.656412,4/14/2020,Meeker County,Minnesota
45.205691,-94.656412,4/14/2020,Meeker County,Minnesota
45.205691,-94.656412,4/14/2020,Meeker County,Minnesota
45.205691,-94.656412,4/14/2020,Meeker County,Minnesota
45.205691,-94.656412,4/14/2020,Meeker County,Minnesota
45.205691,-94.656412,4/14/2020,Meeker County,Minnesota
45.205691,-94.656412,4/14/2020,Meeker County,Minnesota
45.205691,-94.656412,4/14/2020,Meeker County,Minnesota
45.205691,-94.656412,4/14/2020,Meeker County,Minnesota
45.205691,-94.656412,4/14/2020,Meeker County,Minnesota
45.205691,-94.656412,4/14/2020,Meeker County,Minnesota
45.205691,-94.656412,4/14/2020,Meeker County,Minnesota
45.205691,-94.656412,4/14/2020,Meeker County,Minnesota
45.205691,-94.656412,4/14/2020,Meeker County,Minnesota
45.205691,-94.656412,4/14/2020,Meeker County,Minnesota
45.205691,-94.656412,4/14/2020,Meeker County,Minnesota
45.205691,-94.656412,4/14/2020,Meeker County,Minnesota
45.205691,-94.656412,4/14/2020,Meeker County,Minnesota
45.205691,-94.656412,4/14/2020,Meeker County,Minnesota
45.205691,-94.656412,4/14/2020,Meeker County,Minnesota
45.205691,-94.656412,4/14/2020,Meeker County,Minnesota
45.205691,-94.656412,4/14/2020,Meeker County,Minnesota
45.205691,-94.656412,4/14/2020,Meeker County,Minnesota
45.205691,-94.656412,4/14/2020,Meeker County,Minnesota
45.205691,-94.656412,4/14/2020,Meeker County,Minnesota
45.205691,-94.656412,4/14/2020,Meeker County,Minnesota
43.660424,-111.30911,11/5/2006,Teton County,Idaho
43.660424,-111.30911,11/5/2006,Teton County,Idaho
43.660424,-111.30911,11/5/2006,Teton County,Idaho
43.660424,-111.30911,11/5/2006,Teton County,Idaho
43.660424,-111.30911,11/5/2006,Teton County,Idaho
43.660424,-111.30911,11/5/2006,Teton County,Idaho
43.660424,-111.30911,11/5/2006,Teton County,Idaho
43.660424,-111.30911,11/5/2006,Teton County,Idaho
43.660424,-111.30911,11/5/2006,Teton County,Idaho
43.660424,-111.30911,11/5/2006,Teton County,Idaho
42.2458975,-93.912321,4/17/1994,Hamilton County,Iowa
42.2458975,-93.912321,4/17/1994,Hamilton County,Iowa
42.2458975,-93.912321,4/17/1994,Hamilton County,Iowa
42.2458975,-93.912321,4/17/1994,Hamilton County,Iowa
42.2458975,-93.912321,4/17/1994,Hamilton County,Iowa
42.2458975,-93.912321,4/17/1994,Hamilton County,Iowa
42.2458975,-93.912321,4/17/1994,Hamilton County,Iowa
42.2458975,-93.912321,4/17/1994,Hamilton County,Iowa
42.2458975,-93.912321,4/17/1994,Hamilton County,Iowa
42.2458975,-93.912321,4/17/1994,Hamilton County,Iowa
42.2458975,-93.912321,4/17/1994,Hamilton County,Iowa
42.2458975,-93.912321,4/17/1994,Hamilton County,Iowa
42.2458975,-93.912321,4/17/1994,Hamilton County,Iowa
42.2458975,-93.912321,4/17/1994,Hamilton County,Iowa
42.2458975,-93.912321,4/17/1994,Hamilton County,Iowa
33.259856,-109.096282,4/1/2024,Greenlee County,Arizona
33.259856,-109.096282,4/1/2024,Greenlee County,Arizona
33.259856,-109.096282,4/1/2024,Greenlee County,Arizona
33.259856,-109.096282,4/1/2024,Greenlee County,Arizona
33.259856,-109.096282,4/1/2024,Greenlee County,Arizona
33.259856,-109.096282,4/1/2024,Greenlee County,Arizona
33.259856,-109.096282,4/1/2024,Greenlee County,Arizona
33.259856,-109.096282,4/1/2024,Greenlee County,Arizona
33.259856,-109.096282,4/1/2024,Greenlee County,Arizona
33.259856,-109.096282,4/1/2024,Greenlee County,Arizona
33.259856,-109.096282,4/1/2024,Greenlee County,Arizona
33.259856,-109.096282,4/1/2024,Greenlee County,Arizona
33.259856,-109.096282,4/1/2024,Greenlee County,Arizona
44.6578545,-71.246054,4/14/2020,Coös County,New Hampshire
44.6578545,-71.246054,4/14/2020,Coös County,New Hampshire
44.6578545,-71.246054,4/14/2020,Coös County,New Hampshire
44.6578545,-71.246054,4/14/2020,Coös County,New Hampshire
44.6578545,-71.246054,4/14/2020,Coös County,New Hampshire
44.6578545,-71.246054,4/14/2020,Coös County,New Hampshire
44.6578545,-71.246054,4/14/2020,Coös County,New Hampshire
44.6578545,-71.246054,4/14/2020,Coös County,New Hampshire
44.6578545,-71.246054,4/14/2020,Coös County,New Hampshire
44.6578545,-71.246054,4/14/2020,Coös County,New Hampshire
44.6578545,-71.246054,4/14/2020,Coös County,New Hampshire
44.6578545,-71.246054,4/14/2020,Coös County,New Hampshire
44.6578545,-71.246054,4/14/2020,Coös County,New Hampshire
44.6578545,-71.246054,4/14/2020,Coös County,New Hampshire
44.6578545,-71.246054,4/14/2020,Coös County,New Hampshire
44.6578545,-71.246054,4/14/2020,Coös County,New Hampshire
44.6578545,-71.246054,4/14/2020,Coös County,New Hampshire
44.6578545,-71.246054,4/14/2020,Coös County,New Hampshire
44.6578545,-71.246054,4/14/2020,Coös County,New Hampshire
44.6578545,-71.246054,4/14/2020,Coös County,New Hampshire
44.6578545,-71.246054,4/14/2020,Coös County,New Hampshire
44.6578545,-71.246054,4/14/2020,Coös County,New Hampshire
44.6578545,-71.246054,4/14/2020,Coös County,New Hampshire
44.6578545,-71.246054,4/14/2020,Coös County,New Hampshire
44.6578545,-71.246054,4/14/2020,Coös County,New Hampshire
26.673307,-112.718622,9/23/2001,Municipio de Mulegé,Baja California Sur
26.673307,-112.718622,9/23/2001,Municipio de Mulegé,Baja California Sur
26.673307,-112.718622,9/23/2001,Municipio de Mulegé,Baja California Sur
26.673307,-112.718622,9/23/2001,Municipio de Mulegé,Baja California Sur
26.673307,-112.718622,9/23/2001,Municipio de Mulegé,Baja California Sur
26.673307,-112.718622,9/23/2001,Municipio de Mulegé,Baja California Sur
26.673307,-112.718622,9/23/2001,Municipio de Mulegé,Baja California Sur
26.673307,-112.718622,9/23/2001,Municipio de Mulegé,Baja California Sur
26.673307,-112.718622,9/23/2001,Municipio de Mulegé,Baja California Sur
26.673307,-112.718622,9/23/2001,Municipio de Mulegé,Baja California Sur
26.673307,-112.718622,9/23/2001,Municipio de Mulegé,Baja California Sur
26.673307,-112.718622,9/23/2001,Municipio de Mulegé,Baja California Sur
26.673307,-112.718622,9/23/2001,Municipio de Mulegé,Baja California Sur
26.673307,-112.718622,9/23/2001,Municipio de Mulegé,Baja California Sur
26.673307,-112.718622,9/23/2001,Municipio de Mulegé,Baja California Sur
26.673307,-112.718622,9/23/2001,Municipio de Mulegé,Baja California Sur
26.673307,-112.718622,9/23/2001,Municipio de Mulegé,Baja California Sur
26.673307,-112.718622,9/23/2001,Municipio de Mulegé,Baja California Sur
41.779553,-92.143079,10/10/2020,Iowa County,Iowa
41.779553,-92.143079,10/10/2020,Iowa County,Iowa
41.779553,-92.143079,10/10/2020,Iowa County,Iowa
41.779553,-92.143079,10/10/2020,Iowa County,Iowa
41.779553,-92.143079,10/10/2020,Iowa County,Iowa
41.779553,-92.143079,10/10/2020,Iowa County,Iowa
41.779553,-92.143079,10/10/2020,Iowa County,Iowa
41.779553,-92.143079,10/10/2020,Iowa County,Iowa
41.779553,-92.143079,10/10/2020,Iowa County,Iowa
41.779553,-92.143079,10/10/2020,Iowa County,Iowa
41.779553,-92.143079,10/10/2020,Iowa County,Iowa
41.779553,-92.143079,10/10/2020,Iowa County,Iowa
41.779553,-92.143079,10/10/2020,Iowa County,Iowa
41.779553,-92.143079,10/10/2020,Iowa County,Iowa
41.779553,-92.143079,10/10/2020,Iowa County,Iowa
45.399454,-74.026863,6/13/2000,Vaudreuil-Soulanges,Quebec
45.399454,-74.026863,6/13/2000,Vaudreuil-Soulanges,Quebec
45.399454,-74.026863,6/13/2000,Vaudreuil-Soulanges,Quebec
45.399454,-74.026863,6/13/2000,Vaudreuil-Soulanges,Quebec
45.399454,-74.026863,6/13/2000,Vaudreuil-Soulanges,Quebec
45.399454,-74.026863,6/13/2000,Vaudreuil-Soulanges,Quebec
45.399454,-74.026863,6/13/2000,Vaudreuil-Soulanges,Quebec
45.399454,-74.026863,6/13/2000,Vaudreuil-Soulanges,Quebec
45.399454,-74.026863,6/13/2000,Vaudreuil-Soulanges,Quebec
45.399454,-74.026863,6/13/2000,Vaudreuil-Soulanges,Quebec
45.399454,-74.026863,6/13/2000,Vaudreuil-Soulanges,Quebec
45.399454,-74.026863,6/13/2000,Vaudreuil-Soulanges,Quebec
45.399454,-74.026863,6/13/2000,Vaudreuil-Soulanges,Quebec
45.399454,-74.026863,6/13/2000,Vaudreuil-Soulanges,Quebec
45.399454,-74.026863,6/13/2000,Vaudreuil-Soulanges,Quebec
45.399454,-74.026863,6/13/2000,Vaudreuil-Soulanges,Quebec
45.399454,-74.026863,6/13/2000,Vaudreuil-Soulanges,Quebec
45.399454,-74.026863,6/13/2000,Vaudreuil-Soulanges,Quebec
36.4181675,-101.166741,12/31/2023,Hansford County,Texas
36.4181675,-101.166741,12/31/2023,Hansford County,Texas
36.4181675,-101.166741,12/31/2023,Hansford County,Texas
36.4181675,-101.166741,12/31/2023,Hansford County,Texas
36.4181675,-101.166741,12/31/2023,Hansford County,Texas
36.4181675,-101.166741,12/31/2023,Hansford County,Texas
36.4181675,-101.166741,12/31/2023,Hansford County,Texas
36.4181675,-101.166741,12/31/2023,Hansford County,Texas
36.4181675,-101.166741,12/31/2023,Hansford County,Texas
36.4181675,-101.166741,12/31/2023,Hansford County,Texas
36.4181675,-101.166741,12/31/2023,Hansford County,Texas
36.4181675,-101.166741,12/31/2023,Hansford County,Texas
36.4181675,-101.166741,12/31/2023,Hansford County,Texas
36.4181675,-101.166741,12/31/2023,Hansford County,Texas
36.4181675,-101.166741,12/31/2023,Hansford County,Texas
33.266853,-109.152626,7/30/1990,Greenlee County,Arizona
33.266853,-109.152626,7/30/1990,Greenlee County,Arizona
33.266853,-109.152626,7/30/1990,Greenlee County,Arizona
33.266853,-109.152626,7/30/1990,Greenlee County,Arizona
33.266853,-109.152626,7/30/1990,Greenlee County,Arizona
33.266853,-109.152626,7/30/1990,Greenlee County,Arizona
33.266853,-109.152626,7/30/1990,Greenlee County,Arizona
33.266853,-109.152626,7/30/1990,Greenlee County,Arizona
33.266853,-109.152626,7/30/1990,Greenlee County,Arizona
33.266853,-109.152626,7/30/1990,Greenlee County,Arizona
33.266853,-109.152626,7/30/1990,Greenlee County,Arizona
33.266853,-109.152626,7/30/1990,Greenlee County,Arizona
33.266853,-109.152626,7/30/1990,Greenlee County,Arizona
33.266853,-109.152626,7/30/1990,Greenlee County,Arizona
41.544169,-84.136016,10/28/1996,Fulton County,Ohio
41.544169,-84.136016,10/28/1996,Fulton County,Ohio
41.544169,-84.136016,10/28/1996,Fulton County,Ohio
41.544169,-84.136016,10/28/1996,Fulton County,Ohio
41.544169,-84.136016,10/28/1996,Fulton County,Ohio
41.544169,-84.136016,10/28/1996,Fulton County,Ohio
41.544169,-84.136016,10/28/1996,Fulton County,Ohio
41.544169,-84.136016,10/28/1996,Fulton County,Ohio
41.544169,-84.136016,10/28/1996,Fulton County,Ohio
41.544169,-84.136016,10/28/1996,Fulton County,Ohio
41.544169,-84.136016,10/28/1996,Fulton County,Ohio
41.544169,-84.136016,10/28/1996,Fulton County,Ohio
41.544169,-84.136016,10/28/1996,Fulton County,Ohio
41.544169,-84.136016,10/28/1996,Fulton County,Ohio
41.544169,-84.136016,10/28/1996,Fulton County,Ohio
41.544169,-84.136016,10/28/1996,Fulton County,Ohio
41.544169,-84.136016,10/28/1996,Fulton County,Ohio
41.544169,-84.136016,10/28/1996,Fulton County,Ohio
41.544169,-84.136016,10/28/1996,Fulton County,Ohio
30.62567,-87.158144,12/26/1996,Santa Rosa County,Florida
30.62567,-87.158144,12/26/1996,Santa Rosa County,Florida
30.62567,-87.158144,12/26/1996,Santa Rosa County,Florida
30.62567,-87.158144,12/26/1996,Santa Rosa County,Florida
30.62567,-87.158144,12/26/1996,Santa Rosa County,Florida
30.62567,-87.158144,12/26/1996,Santa Rosa County,Florida
30.62567,-87.158144,12/26/1996,Santa Rosa County,Florida
30.62567,-87.158144,12/26/1996,Santa Rosa County,Florida
30.62567,-87.158144,12/26/1996,Santa Rosa County,Florida
30.62567,-87.158144,12/26/1996,Santa Rosa County,Florida
30.62567,-87.158144,12/26/1996,Santa Rosa County,Florida
30.62567,-87.158144,12/26/1996,Santa Rosa County,Florida
30.62567,-87.158144,12/26/1996,Santa Rosa County,Florida
30.62567,-87.158144,12/26/1996,Santa Rosa County,Florida
30.62567,-87.158144,12/26/1996,Santa Rosa County,Florida
30.62567,-87.158144,12/26/1996,Santa Rosa County,Florida
30.62567,-87.158144,12/26/1996,Santa Rosa County,Florida
30.62567,-87.158144,12/26/1996,Santa Rosa County,Florida
30.62567,-87.158144,12/26/1996,Santa Rosa County,Florida
30.62567,-87.158144,12/26/1996,Santa Rosa County,Florida
30.62567,-87.158144,12/26/1996,Santa Rosa County,Florida
30.62567,-87.158144,12/26/1996,Santa Rosa County,Florida
30.62567,-87.158144,12/26/1996,Santa Rosa County,Florida
30.62567,-87.158144,12/26/1996,Santa Rosa County,Florida
31.027073,-81.868426,1/11/1999,Camden County,Georgia
31.027073,-81.868426,1/11/1999,Camden County,Georgia
31.027073,-81.868426,1/11/1999,Camden County,Georgia
31.027073,-81.868426,1/11/1999,Camden County,Georgia
31.027073,-81.868426,1/11/1999,Camden County,Georgia
31.027073,-81.868426,1/11/1999,Camden County,Georgia
31.027073,-81.868426,1/11/1999,Camden County,Georgia
31.027073,-81.868426,1/11/1999,Camden County,Georgia
31.027073,-81.868426,1/11/1999,Camden County,Georgia
36.172952,-79.495933,5/14/2014,Alamance County,North Carolina
36.172952,-79.495933,5/14/2014,Alamance County,North Carolina
36.172952,-79.495933,5/14/2014,Alamance County,North Carolina
36.172952,-79.495933,5/14/2014,Alamance County,North Carolina
36.172952,-79.495933,5/14/2014,Alamance County,North Carolina
36.172952,-79.495933,5/14/2014,Alamance County,North Carolina
36.172952,-79.495933,5/14/2014,Alamance County,North Carolina
26.4321065,-112.255504,1/24/2013,Municipio de Comondú,Baja California Sur
26.4321065,-112.255504,1/24/2013,Municipio de Comondú,Baja California Sur
26.4321065,-112.255504,1/24/2013,Municipio de Comondú,Baja California Sur
26.4321065,-112.255504,1/24/2013,Municipio de Comondú,Baja California Sur
26.4321065,-112.255504,1/24/2013,Municipio de Comondú,Baja California Sur
26.4321065,-112.255504,1/24/2013,Municipio de Comondú,Baja California Sur
26.4321065,-112.255504,1/24/2013,Municipio de Comondú,Baja California Sur
26.4321065,-112.255504,1/24/2013,Municipio de Comondú,Baja California Sur
26.4321065,-112.255504,1/24/2013,Municipio de Comondú,Baja California Sur
26.4321065,-112.255504,1/24/2013,Municipio de Comondú,Baja California Sur
26.4321065,-112.255504,1/24/2013,Municipio de Comondú,Baja California Sur
26.4321065,-112.255504,1/24/2013,Municipio de Comondú,Baja California Sur
26.4321065,-112.255504,1/24/2013,Municipio de Comondú,Baja California Sur
26.4321065,-112.255504,1/24/2013,Municipio de Comondú,Baja California Sur
26.4321065,-112.255504,1/24/2013,Municipio de Comondú,Baja California Sur
26.4321065,-112.255504,1/24/2013,Municipio de Comondú,Baja California Sur
26.4321065,-112.255504,1/24/2013,Municipio de Comondú,Baja California Sur
26.4321065,-112.255504,1/24/2013,Municipio de Comondú,Baja California Sur
26.4321065,-112.255504,1/24/2013,Municipio de Comondú,Baja California Sur
26.4321065,-112.255504,1/24/2013,Municipio de Comondú,Baja California Sur
26.4321065,-112.255504,1/24/2013,Municipio de Comondú,Baja California Sur
41.743766,-81.824175,6/20/1997,Cuyahoga County,Ohio
41.743766,-81.824175,6/20/1997,Cuyahoga County,Ohio
41.743766,-81.824175,6/20/1997,Cuyahoga County,Ohio
41.743766,-81.824175,6/20/1997,Cuyahoga County,Ohio
41.743766,-81.824175,6/20/1997,Cuyahoga County,Ohio
41.743766,-81.824175,6/20/1997,Cuyahoga County,Ohio
41.743766,-81.824175,6/20/1997,Cuyahoga County,Ohio
41.743766,-81.824175,6/20/1997,Cuyahoga County,Ohio
41.743766,-81.824175,6/20/1997,Cuyahoga County,Ohio
41.743766,-81.824175,6/20/1997,Cuyahoga County,Ohio
40.5481825,-91.312943,3/22/2015,Hancock County,Illinois
40.5481825,-91.312943,3/22/2015,Hancock County,Illinois
40.5481825,-91.312943,3/22/2015,Hancock County,Illinois
40.5481825,-91.312943,3/22/2015,Hancock County,Illinois
40.5481825,-91.312943,3/22/2015,Hancock County,Illinois
40.5481825,-91.312943,3/22/2015,Hancock County,Illinois
40.5481825,-91.312943,3/22/2015,Hancock County,Illinois
40.5481825,-91.312943,3/22/2015,Hancock County,Illinois
40.5481825,-91.312943,3/22/2015,Hancock County,Illinois
40.5481825,-91.312943,3/22/2015,Hancock County,Illinois
40.5481825,-91.312943,3/22/2015,Hancock County,Illinois
40.5481825,-91.312943,3/22/2015,Hancock County,Illinois
40.5481825,-91.312943,3/22/2015,Hancock County,Illinois
40.5481825,-91.312943,3/22/2015,Hancock County,Illinois
40.5481825,-91.312943,3/22/2015,Hancock County,Illinois
40.5481825,-91.312943,3/22/2015,Hancock County,Illinois
40.5481825,-91.312943,3/22/2015,Hancock County,Illinois
40.5481825,-91.312943,3/22/2015,Hancock County,Illinois
40.5481825,-91.312943,3/22/2015,Hancock County,Illinois
40.5481825,-91.312943,3/22/2015,Hancock County,Illinois
37.245148,-116.615781,5/30/2004,Nye County,Nevada
37.245148,-116.615781,5/30/2004,Nye County,Nevada
37.245148,-116.615781,5/30/2004,Nye County,Nevada
37.245148,-116.615781,5/30/2004,Nye County,Nevada
37.245148,-116.615781,5/30/2004,Nye County,Nevada
37.245148,-116.615781,5/30/2004,Nye County,Nevada
37.245148,-116.615781,5/30/2004,Nye County,Nevada
29.6396205,-97.924132,8/13/2007,Guadalupe County,Texas
29.6396205,-97.924132,8/13/2007,Guadalupe County,Texas
29.6396205,-97.924132,8/13/2007,Guadalupe County,Texas
29.6396205,-97.924132,8/13/2007,Guadalupe County,Texas
29.6396205,-97.924132,8/13/2007,Guadalupe County,Texas
29.6396205,-97.924132,8/13/2007,Guadalupe County,Texas
40.272248,-119.013056,9/24/2010,Pershing County,Nevada
40.272248,-119.013056,9/24/2010,Pershing County,Nevada
40.272248,-119.013056,9/24/2010,Pershing County,Nevada
40.272248,-119.013056,9/24/2010,Pershing County,Nevada
40.272248,-119.013056,9/24/2010,Pershing County,Nevada
40.272248,-119.013056,9/24/2010,Pershing County,Nevada
40.272248,-119.013056,9/24/2010,Pershing County,Nevada
40.272248,-119.013056,9/24/2010,Pershing County,Nevada
40.272248,-119.013056,9/24/2010,Pershing County,Nevada
40.272248,-119.013056,9/24/2010,Pershing County,Nevada
40.272248,-119.013056,9/24/2010,Pershing County,Nevada
40.272248,-119.013056,9/24/2010,Pershing County,Nevada
40.272248,-119.013056,9/24/2010,Pershing County,Nevada
40.272248,-119.013056,9/24/2010,Pershing County,Nevada
40.272248,-119.013056,9/24/2010,Pershing County,Nevada
40.272248,-119.013056,9/24/2010,Pershing County,Nevada
40.272248,-119.013056,9/24/2010,Pershing County,Nevada
40.272248,-119.013056,9/24/2010,Pershing County,Nevada
40.272248,-119.013056,9/24/2010,Pershing County,Nevada
40.272248,-119.013056,9/24/2010,Pershing County,Nevada
40.272248,-119.013056,9/24/2010,Pershing County,Nevada
40.272248,-119.013056,9/24/2010,Pershing County,Nevada
40.272248,-119.013056,9/24/2010,Pershing County,Nevada
40.272248,-119.013056,9/24/2010,Pershing County,Nevada
40.272248,-119.013056,9/24/2010,Pershing County,Nevada
30.2989985,-100.682429,8/7/1993,Sutton County,Texas
30.2989985,-100.682429,8/7/1993,Sutton County,Texas
30.2989985,-100.682429,8/7/1993,Sutton County,Texas
30.2989985,-100.682429,8/7/1993,Sutton County,Texas
30.2989985,-100.682429,8/7/1993,Sutton County,Texas
30.2989985,-100.682429,8/7/1993,Sutton County,Texas
30.2989985,-100.682429,8/7/1993,Sutton County,Texas
30.2989985,-100.682429,8/7/1993,Sutton County,Texas
30.2989985,-100.682429,8/7/1993,Sutton County,Texas
30.2989985,-100.682429,8/7/1993,Sutton County,Texas
30.2989985,-100.682429,8/7/1993,Sutton County,Texas
30.2989985,-100.682429,8/7/1993,Sutton County,Texas
30.2989985,-100.682429,8/7/1993,Sutton County,Texas
30.2989985,-100.682429,8/7/1993,Sutton County,Texas
30.2989985,-100.682429,8/7/1993,Sutton County,Texas
30.2989985,-100.682429,8/7/1993,Sutton County,Texas
30.2989985,-100.682429,8/7/1993,Sutton County,Texas
30.2989985,-100.682429,8/7/1993,Sutton County,Texas
43.682335,-94.973662,12/3/2012,Jackson County,Minnesota
43.682335,-94.973662,12/3/2012,Jackson County,Minnesota
43.682335,-94.973662,12/3/2012,Jackson County,Minnesota
43.682335,-94.973662,12/3/2012,Jackson County,Minnesota
43.682335,-94.973662,12/3/2012,Jackson County,Minnesota
43.682335,-94.973662,12/3/2012,Jackson County,Minnesota
43.682335,-94.973662,12/3/2012,Jackson County,Minnesota
43.682335,-94.973662,12/3/2012,Jackson County,Minnesota
43.682335,-94.973662,12/3/2012,Jackson County,Minnesota
43.682335,-94.973662,12/3/2012,Jackson County,Minnesota
43.682335,-94.973662,12/3/2012,Jackson County,Minnesota
43.682335,-94.973662,12/3/2012,Jackson County,Minnesota
43.682335,-94.973662,12/3/2012,Jackson County,Minnesota
39.8682645,-76.151978,10/11/1993,Lancaster County,Pennsylvania
39.8682645,-76.151978,10/11/1993,Lancaster County,Pennsylvania
39.8682645,-76.151978,10/11/1993,Lancaster County,Pennsylvania
39.8682645,-76.151978,10/11/1993,Lancaster County,Pennsylvania
39.8682645,-76.151978,10/11/1993,Lancaster County,Pennsylvania
39.8682645,-76.151978,10/11/1993,Lancaster County,Pennsylvania
39.8682645,-76.151978,10/11/1993,Lancaster County,Pennsylvania
39.8682645,-76.151978,10/11/1993,Lancaster County,Pennsylvania
39.8682645,-76.151978,10/11/1993,Lancaster County,Pennsylvania
39.8682645,-76.151978,10/11/1993,Lancaster County,Pennsylvania
39.8682645,-76.151978,10/11/1993,Lancaster County,Pennsylvania
39.8682645,-76.151978,10/11/1993,Lancaster County,Pennsylvania
39.8682645,-76.151978,10/11/1993,Lancaster County,Pennsylvania
39.8682645,-76.151978,10/11/1993,Lancaster County,Pennsylvania
39.8682645,-76.151978,10/11/1993,Lancaster County,Pennsylvania
39.8682645,-76.151978,10/11/1993,Lancaster County,Pennsylvania
39.8682645,-76.151978,10/11/1993,Lancaster County,Pennsylvania
39.8682645,-76.151978,10/11/1993,Lancaster County,Pennsylvania
39.8682645,-76.151978,10/11/1993,Lancaster County,Pennsylvania
39.8682645,-76.151978,10/11/1993,Lancaster County,Pennsylvania
39.8682645,-76.151978,10/11/1993,Lancaster County,Pennsylvania
39.8682645,-76.151978,10/11/1993,Lancaster County,Pennsylvania
39.8682645,-76.151978,10/11/1993,Lancaster County,Pennsylvania
34.3328375,-107.400881,3/17/2009,Socorro County,New Mexico
34.3328375,-107.400881,3/17/2009,Socorro County,New Mexico
34.3328375,-107.400881,3/17/2009,Socorro County,New Mexico
34.3328375,-107.400881,3/17/2009,Socorro County,New Mexico
34.3328375,-107.400881,3/17/2009,Socorro County,New Mexico
34.3328375,-107.400881,3/17/2009,Socorro County,New Mexico
34.3328375,-107.400881,3/17/2009,Socorro County,New Mexico
34.3328375,-107.400881,3/17/2009,Socorro County,New Mexico
34.3328375,-107.400881,3/17/2009,Socorro County,New Mexico
34.3328375,-107.400881,3/17/2009,Socorro County,New Mexico
34.3328375,-107.400881,3/17/2009,Socorro County,New Mexico
34.3328375,-107.400881,3/17/2009,Socorro County,New Mexico
34.3328375,-107.400881,3/17/2009,Socorro County,New Mexico
34.3328375,-107.400881,3/17/2009,Socorro County,New Mexico
34.3328375,-107.400881,3/17/2009,Socorro County,New Mexico
34.3328375,-107.400881,3/17/2009,Socorro County,New Mexico
34.3328375,-107.400881,3/17/2009,Socorro County,New Mexico
34.3328375,-107.400881,3/17/2009,Socorro County,New Mexico
34.3328375,-107.400881,3/17/2009,Socorro County,New Mexico
34.3328375,-107.400881,3/17/2009,Socorro County,New Mexico
34.3328375,-107.400881,3/17/2009,Socorro County,New Mexico
34.3328375,-107.400881,3/17/2009,Socorro County,New Mexico
34.3328375,-107.400881,3/17/2009,Socorro County,New Mexico
34.3328375,-107.400881,3/17/2009,Socorro County,New Mexico
34.3328375,-107.400881,3/17/2009,Socorro County,New Mexico
34.3328375,-107.400881,3/17/2009,Socorro County,New Mexico
34.3328375,-107.400881,3/17/2009,Socorro County,New Mexico
34.3328375,-107.400881,3/17/2009,Socorro County,New Mexico
34.3328375,-107.400881,3/17/2009,Socorro County,New Mexico
34.3328375,-107.400881,3/17/2009,Socorro County,New Mexico
39.343137,-82.956468,6/2/1991,Ross County,Ohio
39.343137,-82.956468,6/2/1991,Ross County,Ohio
39.343137,-82.956468,6/2/1991,Ross County,Ohio
39.343137,-82.956468,6/2/1991,Ross County,Ohio
39.343137,-82.956468,6/2/1991,Ross County,Ohio
39.343137,-82.956468,6/2/1991,Ross County,Ohio
39.343137,-82.956468,6/2/1991,Ross County,Ohio
39.343137,-82.956468,6/2/1991,Ross County,Ohio
39.343137,-82.956468,6/2/1991,Ross County,Ohio
39.343137,-82.956468,6/2/1991,Ross County,Ohio
39.343137,-82.956468,6/2/1991,Ross County,Ohio
39.343137,-82.956468,6/2/1991,Ross County,Ohio
39.343137,-82.956468,6/2/1991,Ross County,Ohio
28.241622,-82.520944,11/30/2003,Pasco County,Florida
28.241622,-82.520944,11/30/2003,Pasco County,Florida
28.241622,-82.520944,11/30/2003,Pasco County,Florida
28.241622,-82.520944,11/30/2003,Pasco County,Florida
28.241622,-82.520944,11/30/2003,Pasco County,Florida
28.241622,-82.520944,11/30/2003,Pasco County,Florida
28.241622,-82.520944,11/30/2003,Pasco County,Florida
29.130921,-97.017125,11/5/2009,DeWitt County,Texas
29.130921,-97.017125,11/5/2009,DeWitt County,Texas
29.130921,-97.017125,11/5/2009,DeWitt County,Texas
29.130921,-97.017125,11/5/2009,DeWitt County,Texas
29.130921,-97.017125,11/5/2009,DeWitt County,Texas
29.130921,-97.017125,11/5/2009,DeWitt County,Texas
29.130921,-97.017125,11/5/2009,DeWitt County,Texas
29.130921,-97.017125,11/5/2009,DeWitt County,Texas
29.130921,-97.017125,11/5/2009,DeWitt County,Texas
29.130921,-97.017125,11/5/2009,DeWitt County,Texas
29.130921,-97.017125,11/5/2009,DeWitt County,Texas
29.130921,-97.017125,11/5/2009,DeWitt County,Texas
29.130921,-97.017125,11/5/2009,DeWitt County,Texas
29.130921,-97.017125,11/5/2009,DeWitt County,Texas
29.130921,-97.017125,11/5/2009,DeWitt County,Texas
29.130921,-97.017125,11/5/2009,DeWitt County,Texas
29.130921,-97.017125,11/5/2009,DeWitt County,Texas
29.130921,-97.017125,11/5/2009,DeWitt County,Texas
29.130921,-97.017125,11/5/2009,DeWitt County,Texas
29.130921,-97.017125,11/5/2009,DeWitt County,Texas
36.243427,-95.620235,6/21/2009,Rogers County,Oklahoma
36.243427,-95.620235,6/21/2009,Rogers County,Oklahoma
36.243427,-95.620235,6/21/2009,Rogers County,Oklahoma
36.243427,-95.620235,6/21/2009,Rogers County,Oklahoma
36.243427,-95.620235,6/21/2009,Rogers County,Oklahoma
36.243427,-95.620235,6/21/2009,Rogers County,Oklahoma
36.243427,-95.620235,6/21/2009,Rogers County,Oklahoma
36.243427,-95.620235,6/21/2009,Rogers County,Oklahoma
36.243427,-95.620235,6/21/2009,Rogers County,Oklahoma
36.243427,-95.620235,6/21/2009,Rogers County,Oklahoma
36.243427,-95.620235,6/21/2009,Rogers County,Oklahoma
36.243427,-95.620235,6/21/2009,Rogers County,Oklahoma
36.243427,-95.620235,6/21/2009,Rogers County,Oklahoma
36.243427,-95.620235,6/21/2009,Rogers County,Oklahoma
36.243427,-95.620235,6/21/2009,Rogers County,Oklahoma
36.243427,-95.620235,6/21/2009,Rogers County,Oklahoma
36.243427,-95.620235,6/21/2009,Rogers County,Oklahoma
36.243427,-95.620235,6/21/2009,Rogers County,Oklahoma
36.243427,-95.620235,6/21/2009,Rogers County,Oklahoma
36.243427,-95.620235,6/21/2009,Rogers County,Oklahoma
36.243427,-95.620235,6/21/2009,Rogers County,Oklahoma
36.243427,-95.620235,6/21/2009,Rogers County,Oklahoma
36.243427,-95.620235,6/21/2009,Rogers County,Oklahoma
36.243427,-95.620235,6/21/2009,Rogers County,Oklahoma
36.243427,-95.620235,6/21/2009,Rogers County,Oklahoma
36.243427,-95.620235,6/21/2009,Rogers County,Oklahoma
36.243427,-95.620235,6/21/2009,Rogers County,Oklahoma
26.0315945,-108.872349,7/20/2007,El Fuerte,Sinaloa
26.0315945,-108.872349,7/20/2007,El Fuerte,Sinaloa
26.0315945,-108.872349,7/20/2007,El Fuerte,Sinaloa
26.0315945,-108.872349,7/20/2007,El Fuerte,Sinaloa
26.0315945,-108.872349,7/20/2007,El Fuerte,Sinaloa
26.0315945,-108.872349,7/20/2007,El Fuerte,Sinaloa
26.0315945,-108.872349,7/20/2007,El Fuerte,Sinaloa
26.0315945,-108.872349,7/20/2007,El Fuerte,Sinaloa
26.0315945,-108.872349,7/20/2007,El Fuerte,Sinaloa
26.0315945,-108.872349,7/20/2007,El Fuerte,Sinaloa
26.0315945,-108.872349,7/20/2007,El Fuerte,Sinaloa
26.0315945,-108.872349,7/20/2007,El Fuerte,Sinaloa
37.540974,-101.659926,4/28/1995,Stanton County,Kansas
37.540974,-101.659926,4/28/1995,Stanton County,Kansas
37.540974,-101.659926,4/28/1995,Stanton County,Kansas
37.540974,-101.659926,4/28/1995,Stanton County,Kansas
37.540974,-101.659926,4/28/1995,Stanton County,Kansas
37.540974,-101.659926,4/28/1995,Stanton County,Kansas
37.540974,-101.659926,4/28/1995,Stanton County,Kansas
37.540974,-101.659926,4/28/1995,Stanton County,Kansas
37.540974,-101.659926,4/28/1995,Stanton County,Kansas
37.540974,-101.659926,4/28/1995,Stanton County,Kansas
37.540974,-101.659926,4/28/1995,Stanton County,Kansas
37.540974,-101.659926,4/28/1995,Stanton County,Kansas
37.540974,-101.659926,4/28/1995,Stanton County,Kansas
37.540974,-101.659926,4/28/1995,Stanton County,Kansas
37.540974,-101.659926,4/28/1995,Stanton County,Kansas
37.540974,-101.659926,4/28/1995,Stanton County,Kansas
37.540974,-101.659926,4/28/1995,Stanton County,Kansas
37.540974,-101.659926,4/28/1995,Stanton County,Kansas
37.540974,-101.659926,4/28/1995,Stanton County,Kansas
37.540974,-101.659926,4/28/1995,Stanton County,Kansas
37.540974,-101.659926,4/28/1995,Stanton County,Kansas
37.540974,-101.659926,4/28/1995,Stanton County,Kansas
37.540974,-101.659926,4/28/1995,Stanton County,Kansas
37.540974,-101.659926,4/28/1995,Stanton County,Kansas
37.540974,-101.659926,4/28/1995,Stanton County,Kansas
37.540974,-101.659926,4/28/1995,Stanton County,Kansas
37.540974,-101.659926,4/28/1995,Stanton County,Kansas
37.540974,-101.659926,4/28/1995,Stanton County,Kansas
45.7380125,-77.445085,1/1/1990,Renfrew County,Ontario
45.7380125,-77.445085,1/1/1990,Renfrew County,Ontario
45.7380125,-77.445085,1/1/1990,Renfrew County,Ontario
45.7380125,-77.445085,1/1/1990,Renfrew County,Ontario
45.7380125,-77.445085,1/1/1990,Renfrew County,Ontario
45.7380125,-77.445085,1/1/1990,Renfrew County,Ontario
45.7380125,-77.445085,1/1/1990,Renfrew County,Ontario
45.7380125,-77.445085,1/1/1990,Renfrew County,Ontario
45.7380125,-77.445085,1/1/1990,Renfrew County,Ontario
45.7380125,-77.445085,1/1/1990,Renfrew County,Ontario
45.7380125,-77.445085,1/1/1990,Renfrew County,Ontario
45.7380125,-77.445085,1/1/1990,Renfrew County,Ontario
45.7380125,-77.445085,1/1/1990,Renfrew County,Ontario
45.7380125,-77.445085,1/1/1990,Renfrew County,Ontario
45.7380125,-77.445085,1/1/1990,Renfrew County,Ontario
45.7380125,-77.445085,1/1/1990,Renfrew County,Ontario
45.7380125,-77.445085,1/1/1990,Renfrew County,Ontario
45.7380125,-77.445085,1/1/1990,Renfrew County,Ontario
45.7380125,-77.445085,1/1/1990,Renfrew County,Ontario
45.7380125,-77.445085,1/1/1990,Renfrew County,Ontario
39.2154145,-122.528728,7/31/1988,Colusa County,California
39.2154145,-122.528728,7/31/1988,Colusa County,California
39.2154145,-122.528728,7/31/1988,Colusa County,California
39.2154145,-122.528728,7/31/1988,Colusa County,California
39.2154145,-122.528728,7/31/1988,Colusa County,California
39.2154145,-122.528728,7/31/1988,Colusa County,California
39.2154145,-122.528728,7/31/1988,Colusa County,California
39.2154145,-122.528728,7/31/1988,Colusa County,California
39.2154145,-122.528728,7/31/1988,Colusa County,California
39.2154145,-122.528728,7/31/1988,Colusa County,California
34.9689005,-82.728257,7/29/1989,Pickens County,South Carolina
34.9689005,-82.728257,7/29/1989,Pickens County,South Carolina
34.9689005,-82.728257,7/29/1989,Pickens County,South Carolina
34.9689005,-82.728257,7/29/1989,Pickens County,South Carolina
34.9689005,-82.728257,7/29/1989,Pickens County,South Carolina
34.9689005,-82.728257,7/29/1989,Pickens County,South Carolina
34.9689005,-82.728257,7/29/1989,Pickens County,South Carolina
34.9689005,-82.728257,7/29/1989,Pickens County,South Carolina
34.9689005,-82.728257,7/29/1989,Pickens County,South Carolina
34.9689005,-82.728257,7/29/1989,Pickens County,South Carolina
34.9689005,-82.728257,7/29/1989,Pickens County,South Carolina
34.9689005,-82.728257,7/29/1989,Pickens County,South Carolina
34.9689005,-82.728257,7/29/1989,Pickens County,South Carolina
34.9689005,-82.728257,7/29/1989,Pickens County,South Carolina
34.9689005,-82.728257,7/29/1989,Pickens County,South Carolina
34.9689005,-82.728257,7/29/1989,Pickens County,South Carolina
34.9689005,-82.728257,7/29/1989,Pickens County,South Carolina
34.9689005,-82.728257,7/29/1989,Pickens County,South Carolina
34.9689005,-82.728257,7/29/1989,Pickens County,South Carolina
34.9689005,-82.728257,7/29/1989,Pickens County,South Carolina
34.9689005,-82.728257,7/29/1989,Pickens County,South Carolina
44.960037,-76.188076,1/2/2010,Lanark County,Ontario
44.960037,-76.188076,1/2/2010,Lanark County,Ontario
44.960037,-76.188076,1/2/2010,Lanark County,Ontario
44.960037,-76.188076,1/2/2010,Lanark County,Ontario
44.960037,-76.188076,1/2/2010,Lanark County,Ontario
44.960037,-76.188076,1/2/2010,Lanark County,Ontario
44.960037,-76.188076,1/2/2010,Lanark County,Ontario
44.960037,-76.188076,1/2/2010,Lanark County,Ontario
44.960037,-76.188076,1/2/2010,Lanark County,Ontario
44.960037,-76.188076,1/2/2010,Lanark County,Ontario
44.960037,-76.188076,1/2/2010,Lanark County,Ontario
44.960037,-76.188076,1/2/2010,Lanark County,Ontario
44.960037,-76.188076,1/2/2010,Lanark County,Ontario
44.960037,-76.188076,1/2/2010,Lanark County,Ontario
44.960037,-76.188076,1/2/2010,Lanark County,Ontario
44.960037,-76.188076,1/2/2010,Lanark County,Ontario
44.960037,-76.188076,1/2/2010,Lanark County,Ontario
44.960037,-76.188076,1/2/2010,Lanark County,Ontario
44.960037,-76.188076,1/2/2010,Lanark County,Ontario
44.960037,-76.188076,1/2/2010,Lanark County,Ontario
44.960037,-76.188076,1/2/2010,Lanark County,Ontario
44.960037,-76.188076,1/2/2010,Lanark County,Ontario
44.960037,-76.188076,1/2/2010,Lanark County,Ontario
44.960037,-76.188076,1/2/2010,Lanark County,Ontario
29.5818625,-89.969661,8/24/2004,Plaquemines Parish,Louisiana
29.5818625,-89.969661,8/24/2004,Plaquemines Parish,Louisiana
29.5818625,-89.969661,8/24/2004,Plaquemines Parish,Louisiana
29.5818625,-89.969661,8/24/2004,Plaquemines Parish,Louisiana
29.5818625,-89.969661,8/24/2004,Plaquemines Parish,Louisiana
29.5818625,-89.969661,8/24/2004,Plaquemines Parish,Louisiana
29.5818625,-89.969661,8/24/2004,Plaquemines Parish,Louisiana
29.5818625,-89.969661,8/24/2004,Plaquemines Parish,Louisiana
29.5818625,-89.969661,8/24/2004,Plaquemines Parish,Louisiana
29.5818625,-89.969661,8/24/2004,Plaquemines Parish,Louisiana
29.5818625,-89.969661,8/24/2004,Plaquemines Parish,Louisiana
29.5818625,-89.969661,8/24/2004,Plaquemines Parish,Louisiana
29.5818625,-89.969661,8/24/2004,Plaquemines Parish,Louisiana
29.5818625,-89.969661,8/24/2004,Plaquemines Parish,Louisiana
29.5818625,-89.969661,8/24/2004,Plaquemines Parish,Louisiana
29.5818625,-89.969661,8/24/2004,Plaquemines Parish,Louisiana
29.5818625,-89.969661,8/24/2004,Plaquemines Parish,Louisiana
33.314779,-93.545097,3/18/2001,Lafayette County,Arkansas
33.314779,-93.545097,3/18/2001,Lafayette County,Arkansas
33.314779,-93.545097,3/18/2001,Lafayette County,Arkansas
33.314779,-93.545097,3/18/2001,Lafayette County,Arkansas
33.314779,-93.545097,3/18/2001,Lafayette County,Arkansas
33.314779,-93.545097,3/18/2001,Lafayette County,Arkansas
33.314779,-93.545097,3/18/2001,Lafayette County,Arkansas
33.314779,-93.545097,3/18/2001,Lafayette County,Arkansas
33.314779,-93.545097,3/18/2001,Lafayette County,Arkansas
33.314779,-93.545097,3/18/2001,Lafayette County,Arkansas
33.314779,-93.545097,3/18/2001,Lafayette County,Arkansas
33.314779,-93.545097,3/18/2001,Lafayette County,Arkansas
33.314779,-93.545097,3/18/2001,Lafayette County,Arkansas
33.314779,-93.545097,3/18/2001,Lafayette County,Arkansas
33.314779,-93.545097,3/18/2001,Lafayette County,Arkansas
33.314779,-93.545097,3/18/2001,Lafayette County,Arkansas
33.314779,-93.545097,3/18/2001,Lafayette County,Arkansas
33.314779,-93.545097,3/18/2001,Lafayette County,Arkansas
33.314779,-93.545097,3/18/2001,Lafayette County,Arkansas
33.314779,-93.545097,3/18/2001,Lafayette County,Arkansas
33.314779,-93.545097,3/18/2001,Lafayette County,Arkansas
33.314779,-93.545097,3/18/2001,Lafayette County,Arkansas
33.314779,-93.545097,3/18/2001,Lafayette County,Arkansas
33.314779,-93.545097,3/18/2001,Lafayette County,Arkansas
33.314779,-93.545097,3/18/2001,Lafayette County,Arkansas
33.314779,-93.545097,3/18/2001,Lafayette County,Arkansas
33.314779,-93.545097,3/18/2001,Lafayette County,Arkansas
33.314779,-93.545097,3/18/2001,Lafayette County,Arkansas
33.314779,-93.545097,3/18/2001,Lafayette County,Arkansas
42.507847,-112.563172,10/6/2012,Power County,Idaho
42.507847,-112.563172,10/6/2012,Power County,Idaho
42.507847,-112.563172,10/6/2012,Power County,Idaho
42.507847,-112.563172,10/6/2012,Power County,Idaho
42.507847,-112.563172,10/6/2012,Power County,Idaho
42.507847,-112.563172,10/6/2012,Power County,Idaho
42.507847,-112.563172,10/6/2012,Power County,Idaho
42.507847,-112.563172,10/6/2012,Power County,Idaho
42.507847,-112.563172,10/6/2012,Power County,Idaho
42.507847,-112.563172,10/6/2012,Power County,Idaho
42.507847,-112.563172,10/6/2012,Power County,Idaho
42.507847,-112.563172,10/6/2012,Power County,Idaho
42.507847,-112.563172,10/6/2012,Power County,Idaho
42.507847,-112.563172,10/6/2012,Power County,Idaho
42.507847,-112.563172,10/6/2012,Power County,Idaho
42.507847,-112.563172,10/6/2012,Power County,Idaho
42.507847,-112.563172,10/6/2012,Power County,Idaho
42.507847,-112.563172,10/6/2012,Power County,Idaho
42.507847,-112.563172,10/6/2012,Power County,Idaho
42.507847,-112.563172,10/6/2012,Power County,Idaho
42.507847,-112.563172,10/6/2012,Power County,Idaho
42.507847,-112.563172,10/6/2012,Power County,Idaho
42.507847,-112.563172,10/6/2012,Power County,Idaho
42.507847,-112.563172,10/6/2012,Power County,Idaho
42.507847,-112.563172,10/6/2012,Power County,Idaho
30.300394,-106.06485,7/4/1999,Ahumada,Chihuahua
30.300394,-106.06485,7/4/1999,Ahumada,Chihuahua
30.300394,-106.06485,7/4/1999,Ahumada,Chihuahua
30.300394,-106.06485,7/4/1999,Ahumada,Chihuahua
30.300394,-106.06485,7/4/1999,Ahumada,Chihuahua
30.300394,-106.06485,7/4/1999,Ahumada,Chihuahua
30.300394,-106.06485,7/4/1999,Ahumada,Chihuahua
30.300394,-106.06485,7/4/1999,Ahumada,Chihuahua
30.300394,-106.06485,7/4/1999,Ahumada,Chihuahua
30.300394,-106.06485,7/4/1999,Ahumada,Chihuahua
30.300394,-106.06485,7/4/1999,Ahumada,Chihuahua
30.300394,-106.06485,7/4/1999,Ahumada,Chihuahua
30.300394,-106.06485,7/4/1999,Ahumada,Chihuahua
30.300394,-106.06485,7/4/1999,Ahumada,Chihuahua
30.300394,-106.06485,7/4/1999,Ahumada,Chihuahua
29.1694795,-96.708622,10/16/1989,Jackson County,Texas
29.1694795,-96.708622,10/16/1989,Jackson County,Texas
29.1694795,-96.708622,10/16/1989,Jackson County,Texas
29.1694795,-96.708622,10/16/1989,Jackson County,Texas
29.1694795,-96.708622,10/16/1989,Jackson County,Texas
29.1694795,-96.708622,10/16/1989,Jackson County,Texas
36.6195565,-90.745188,12/25/2018,Ripley County,Missouri
36.6195565,-90.745188,12/25/2018,Ripley County,Missouri
36.6195565,-90.745188,12/25/2018,Ripley County,Missouri
36.6195565,-90.745188,12/25/2018,Ripley County,Missouri
36.6195565,-90.745188,12/25/2018,Ripley County,Missouri
36.6195565,-90.745188,12/25/2018,Ripley County,Missouri
36.6195565,-90.745188,12/25/2018,Ripley County,Missouri
36.6195565,-90.745188,12/25/2018,Ripley County,Missouri
36.6195565,-90.745188,12/25/2018,Ripley County,Missouri
36.6195565,-90.745188,12/25/2018,Ripley County,Missouri
36.6195565,-90.745188,12/25/2018,Ripley County,Missouri
36.6195565,-90.745188,12/25/2018,Ripley County,Missouri
36.6195565,-90.745188,12/25/2018,Ripley County,Missouri
36.6195565,-90.745188,12/25/2018,Ripley County,Missouri
36.6195565,-90.745188,12/25/2018,Ripley County,Missouri
36.6195565,-90.745188,12/25/2018,Ripley County,Missouri
36.6195565,-90.745188,12/25/2018,Ripley County,Missouri
36.6195565,-90.745188,12/25/2018,Ripley County,Missouri
36.6195565,-90.745188,12/25/2018,Ripley County,Missouri
36.6195565,-90.745188,12/25/2018,Ripley County,Missouri
36.6195565,-90.745188,12/25/2018,Ripley County,Missouri
36.6195565,-90.745188,12/25/2018,Ripley County,Missouri
36.6195565,-90.745188,12/25/2018,Ripley County,Missouri
36.6195565,-90.745188,12/25/2018,Ripley County,Missouri
36.6195565,-90.745188,12/25/2018,Ripley County,Missouri
36.6195565,-90.745188,12/25/2018,Ripley County,Missouri
36.6195565,-90.745188,12/25/2018,Ripley County,Missouri
36.6195565,-90.745188,12/25/2018,Ripley County,Missouri
36.6195565,-90.745188,12/25/2018,Ripley County,Missouri
43.551592,-106.486167,8/23/1990,Johnson County,Wyoming
43.551592,-106.486167,8/23/1990,Johnson County,Wyoming
43.551592,-106.486167,8/23/1990,Johnson County,Wyoming
43.551592,-106.486167,8/23/1990,Johnson County,Wyoming
43.551592,-106.486167,8/23/1990,Johnson County,Wyoming
43.551592,-106.486167,8/23/1990,Johnson County,Wyoming
43.551592,-106.486167,8/23/1990,Johnson County,Wyoming
43.551592,-106.486167,8/23/1990,Johnson County,Wyoming
43.551592,-106.486167,8/23/1990,Johnson County,Wyoming
43.551592,-106.486167,8/23/1990,Johnson County,Wyoming
43.551592,-106.486167,8/23/1990,Johnson County,Wyoming
43.551592,-106.486167,8/23/1990,Johnson County,Wyoming
43.551592,-106.486167,8/23/1990,Johnson County,Wyoming
43.551592,-106.486167,8/23/1990,Johnson County,Wyoming
43.551592,-106.486167,8/23/1990,Johnson County,Wyoming
36.057647,-89.919824,8/28/1995,Pemiscot County,Missouri
36.057647,-89.919824,8/28/1995,Pemiscot County,Missouri
36.057647,-89.919824,8/28/1995,Pemiscot County,Missouri
36.057647,-89.919824,8/28/1995,Pemiscot County,Missouri
36.057647,-89.919824,8/28/1995,Pemiscot County,Missouri
36.057647,-89.919824,8/28/1995,Pemiscot County,Missouri
36.057647,-89.919824,8/28/1995,Pemiscot County,Missouri
36.057647,-89.919824,8/28/1995,Pemiscot County,Missouri
36.057647,-89.919824,8/28/1995,Pemiscot County,Missouri
36.057647,-89.919824,8/28/1995,Pemiscot County,Missouri
36.057647,-89.919824,8/28/1995,Pemiscot County,Missouri
36.057647,-89.919824,8/28/1995,Pemiscot County,Missouri
36.057647,-89.919824,8/28/1995,Pemiscot County,Missouri
36.057647,-89.919824,8/28/1995,Pemiscot County,Missouri
36.057647,-89.919824,8/28/1995,Pemiscot County,Missouri
36.057647,-89.919824,8/28/1995,Pemiscot County,Missouri
36.057647,-89.919824,8/28/1995,Pemiscot County,Missouri
36.057647,-89.919824,8/28/1995,Pemiscot County,Missouri
36.057647,-89.919824,8/28/1995,Pemiscot County,Missouri
36.057647,-89.919824,8/28/1995,Pemiscot County,Missouri
36.057647,-89.919824,8/28/1995,Pemiscot County,Missouri
36.057647,-89.919824,8/28/1995,Pemiscot County,Missouri
36.057647,-89.919824,8/28/1995,Pemiscot County,Missouri
36.057647,-89.919824,8/28/1995,Pemiscot County,Missouri
36.057647,-89.919824,8/28/1995,Pemiscot County,Missouri
36.057647,-89.919824,8/28/1995,Pemiscot County,Missouri
36.057647,-89.919824,8/28/1995,Pemiscot County,Missouri
36.057647,-89.919824,8/28/1995,Pemiscot County,Missouri
36.057647,-89.919824,8/28/1995,Pemiscot County,Missouri
36.057647,-89.919824,8/28/1995,Pemiscot County,Missouri
31.1172535,-103.764862,12/21/1994,Reeves County,Texas
31.1172535,-103.764862,12/21/1994,Reeves County,Texas
31.1172535,-103.764862,12/21/1994,Reeves County,Texas
31.1172535,-103.764862,12/21/1994,Reeves County,Texas
31.1172535,-103.764862,12/21/1994,Reeves County,Texas
31.1172535,-103.764862,12/21/1994,Reeves County,Texas
31.1172535,-103.764862,12/21/1994,Reeves County,Texas
31.1172535,-103.764862,12/21/1994,Reeves County,Texas
31.1172535,-103.764862,12/21/1994,Reeves County,Texas
31.1172535,-103.764862,12/21/1994,Reeves County,Texas
31.1172535,-103.764862,12/21/1994,Reeves County,Texas
31.1172535,-103.764862,12/21/1994,Reeves County,Texas
44.363252,-112.112856,6/19/2012,Clark County,Idaho
44.363252,-112.112856,6/19/2012,Clark County,Idaho
44.363252,-112.112856,6/19/2012,Clark County,Idaho
44.363252,-112.112856,6/19/2012,Clark County,Idaho
44.363252,-112.112856,6/19/2012,Clark County,Idaho
44.363252,-112.112856,6/19/2012,Clark County,Idaho
44.363252,-112.112856,6/19/2012,Clark County,Idaho
44.363252,-112.112856,6/19/2012,Clark County,Idaho
44.363252,-112.112856,6/19/2012,Clark County,Idaho
44.363252,-112.112856,6/19/2012,Clark County,Idaho
44.363252,-112.112856,6/19/2012,Clark County,Idaho
44.363252,-112.112856,6/19/2012,Clark County,Idaho
41.6908105,-87.289866,6/25/1996,Lake County,Indiana
41.6908105,-87.289866,6/25/1996,Lake County,Indiana
41.6908105,-87.289866,6/25/1996,Lake County,Indiana
41.6908105,-87.289866,6/25/1996,Lake County,Indiana
41.6908105,-87.289866,6/25/1996,Lake County,Indiana
41.6908105,-87.289866,6/25/1996,Lake County,Indiana
41.6908105,-87.289866,6/25/1996,Lake County,Indiana
41.6908105,-87.289866,6/25/1996,Lake County,Indiana
41.6908105,-87.289866,6/25/1996,Lake County,Indiana
41.6908105,-87.289866,6/25/1996,Lake County,Indiana
32.8371835,-94.821962,9/25/2008,Upshur County,Texas
32.8371835,-94.821962,9/25/2008,Upshur County,Texas
32.8371835,-94.821962,9/25/2008,Upshur County,Texas
32.8371835,-94.821962,9/25/2008,Upshur County,Texas
32.8371835,-94.821962,9/25/2008,Upshur County,Texas
32.8371835,-94.821962,9/25/2008,Upshur County,Texas
32.8371835,-94.821962,9/25/2008,Upshur County,Texas
32.8371835,-94.821962,9/25/2008,Upshur County,Texas
32.8371835,-94.821962,9/25/2008,Upshur County,Texas
32.8371835,-94.821962,9/25/2008,Upshur County,Texas
32.8371835,-94.821962,9/25/2008,Upshur County,Texas
39.7494445,-101.578976,5/20/2018,Cheyenne County,Kansas
39.7494445,-101.578976,5/20/2018,Cheyenne County,Kansas
39.7494445,-101.578976,5/20/2018,Cheyenne County,Kansas
39.7494445,-101.578976,5/20/2018,Cheyenne County,Kansas
39.7494445,-101.578976,5/20/2018,Cheyenne County,Kansas
39.7494445,-101.578976,5/20/2018,Cheyenne County,Kansas
39.7494445,-101.578976,5/20/2018,Cheyenne County,Kansas
39.7494445,-101.578976,5/20/2018,Cheyenne County,Kansas
39.7494445,-101.578976,5/20/2018,Cheyenne County,Kansas
39.7494445,-101.578976,5/20/2018,Cheyenne County,Kansas
39.7494445,-101.578976,5/20/2018,Cheyenne County,Kansas
39.7494445,-101.578976,5/20/2018,Cheyenne County,Kansas
39.7494445,-101.578976,5/20/2018,Cheyenne County,Kansas
39.7494445,-101.578976,5/20/2018,Cheyenne County,Kansas
39.7494445,-101.578976,5/20/2018,Cheyenne County,Kansas
39.7494445,-101.578976,5/20/2018,Cheyenne County,Kansas
39.7494445,-101.578976,5/20/2018,Cheyenne County,Kansas
39.7494445,-101.578976,5/20/2018,Cheyenne County,Kansas
39.7494445,-101.578976,5/20/2018,Cheyenne County,Kansas
39.7494445,-101.578976,5/20/2018,Cheyenne County,Kansas
39.7494445,-101.578976,5/20/2018,Cheyenne County,Kansas
39.7494445,-101.578976,5/20/2018,Cheyenne County,Kansas
39.7494445,-101.578976,5/20/2018,Cheyenne County,Kansas
39.7494445,-101.578976,5/20/2018,Cheyenne County,Kansas
43.1718585,-92.97216,9/30/2004,Floyd County,Iowa
43.1718585,-92.97216,9/30/2004,Floyd County,Iowa
43.1718585,-92.97216,9/30/2004,Floyd County,Iowa
43.1718585,-92.97216,9/30/2004,Floyd County,Iowa
43.1718585,-92.97216,9/30/2004,Floyd County,Iowa
43.1718585,-92.97216,9/30/2004,Floyd County,Iowa
43.1718585,-92.97216,9/30/2004,Floyd County,Iowa
43.1718585,-92.97216,9/30/2004,Floyd County,Iowa
43.1718585,-92.97216,9/30/2004,Floyd County,Iowa
43.1718585,-92.97216,9/30/2004,Floyd County,Iowa
43.1718585,-92.97216,9/30/2004,Floyd County,Iowa
43.1718585,-92.97216,9/30/2004,Floyd County,Iowa
43.1718585,-92.97216,9/30/2004,Floyd County,Iowa
43.1718585,-92.97216,9/30/2004,Floyd County,Iowa
43.1718585,-92.97216,9/30/2004,Floyd County,Iowa
43.1718585,-92.97216,9/30/2004,Floyd County,Iowa
37.232251,-94.008565,5/25/2022,Lawrence County,Missouri
37.232251,-94.008565,5/25/2022,Lawrence County,Missouri
37.232251,-94.008565,5/25/2022,Lawrence County,Missouri
37.232251,-94.008565,5/25/2022,Lawrence County,Missouri
37.232251,-94.008565,5/25/2022,Lawrence County,Missouri
37.232251,-94.008565,5/25/2022,Lawrence County,Missouri
37.232251,-94.008565,5/25/2022,Lawrence County,Missouri
37.232251,-94.008565,5/25/2022,Lawrence County,Missouri
37.232251,-94.008565,5/25/2022,Lawrence County,Missouri
37.232251,-94.008565,5/25/2022,Lawrence County,Missouri
37.232251,-94.008565,5/25/2022,Lawrence County,Missouri
37.232251,-94.008565,5/25/2022,Lawrence County,Missouri
37.232251,-94.008565,5/25/2022,Lawrence County,Missouri
37.232251,-94.008565,5/25/2022,Lawrence County,Missouri
37.232251,-94.008565,5/25/2022,Lawrence County,Missouri
37.232251,-94.008565,5/25/2022,Lawrence County,Missouri
37.232251,-94.008565,5/25/2022,Lawrence County,Missouri
37.232251,-94.008565,5/25/2022,Lawrence County,Missouri
37.232251,-94.008565,5/25/2022,Lawrence County,Missouri
37.232251,-94.008565,5/25/2022,Lawrence County,Missouri
37.232251,-94.008565,5/25/2022,Lawrence County,Missouri
37.232251,-94.008565,5/25/2022,Lawrence County,Missouri
37.232251,-94.008565,5/25/2022,Lawrence County,Missouri
37.232251,-94.008565,5/25/2022,Lawrence County,Missouri
37.232251,-94.008565,5/25/2022,Lawrence County,Missouri
37.232251,-94.008565,5/25/2022,Lawrence County,Missouri
32.7412075,-113.708436,2/13/1994,Yuma County,Arizona
32.7412075,-113.708436,2/13/1994,Yuma County,Arizona
32.7412075,-113.708436,2/13/1994,Yuma County,Arizona
32.7412075,-113.708436,2/13/1994,Yuma County,Arizona
32.7412075,-113.708436,2/13/1994,Yuma County,Arizona
32.7412075,-113.708436,2/13/1994,Yuma County,Arizona
32.7412075,-113.708436,2/13/1994,Yuma County,Arizona
32.7412075,-113.708436,2/13/1994,Yuma County,Arizona
32.7412075,-113.708436,2/13/1994,Yuma County,Arizona
32.7412075,-113.708436,2/13/1994,Yuma County,Arizona
32.7412075,-113.708436,2/13/1994,Yuma County,Arizona
32.7412075,-113.708436,2/13/1994,Yuma County,Arizona
32.7412075,-113.708436,2/13/1994,Yuma County,Arizona
32.7412075,-113.708436,2/13/1994,Yuma County,Arizona
32.7412075,-113.708436,2/13/1994,Yuma County,Arizona
45.657836,-76.221435,12/25/1990,Les Collines-de-l'Outaouais,Quebec
45.657836,-76.221435,12/25/1990,Les Collines-de-l'Outaouais,Quebec
45.657836,-76.221435,12/25/1990,Les Collines-de-l'Outaouais,Quebec
45.657836,-76.221435,12/25/1990,Les Collines-de-l'Outaouais,Quebec
45.657836,-76.221435,12/25/1990,Les Collines-de-l'Outaouais,Quebec
45.657836,-76.221435,12/25/1990,Les Collines-de-l'Outaouais,Quebec
45.657836,-76.221435,12/25/1990,Les Collines-de-l'Outaouais,Quebec
45.657836,-76.221435,12/25/1990,Les Collines-de-l'Outaouais,Quebec
45.657836,-76.221435,12/25/1990,Les Collines-de-l'Outaouais,Quebec
45.657836,-76.221435,12/25/1990,Les Collines-de-l'Outaouais,Quebec
45.657836,-76.221435,12/25/1990,Les Collines-de-l'Outaouais,Quebec
45.657836,-76.221435,12/25/1990,Les Collines-de-l'Outaouais,Quebec
38.447189,-112.475631,5/15/2005,Piute County,Utah
38.447189,-112.475631,5/15/2005,Piute County,Utah
38.447189,-112.475631,5/15/2005,Piute County,Utah
38.447189,-112.475631,5/15/2005,Piute County,Utah
38.447189,-112.475631,5/15/2005,Piute County,Utah
38.447189,-112.475631,5/15/2005,Piute County,Utah
38.447189,-112.475631,5/15/2005,Piute County,Utah
38.447189,-112.475631,5/15/2005,Piute County,Utah
38.447189,-112.475631,5/15/2005,Piute County,Utah
38.447189,-112.475631,5/15/2005,Piute County,Utah
38.447189,-112.475631,5/15/2005,Piute County,Utah
38.447189,-112.475631,5/15/2005,Piute County,Utah
38.447189,-112.475631,5/15/2005,Piute County,Utah
38.447189,-112.475631,5/15/2005,Piute County,Utah
38.447189,-112.475631,5/15/2005,Piute County,Utah
38.447189,-112.475631,5/15/2005,Piute County,Utah
38.447189,-112.475631,5/15/2005,Piute County,Utah
38.447189,-112.475631,5/15/2005,Piute County,Utah
38.447189,-112.475631,5/15/2005,Piute County,Utah
38.447189,-112.475631,5/15/2005,Piute County,Utah
38.447189,-112.475631,5/15/2005,Piute County,Utah
38.447189,-112.475631,5/15/2005,Piute County,Utah
38.447189,-112.475631,5/15/2005,Piute County,Utah
38.447189,-112.475631,5/15/2005,Piute County,Utah
46.1005965,-111.416195,4/7/1999,Broadwater County,Montana
46.1005965,-111.416195,4/7/1999,Broadwater County,Montana
46.1005965,-111.416195,4/7/1999,Broadwater County,Montana
46.1005965,-111.416195,4/7/1999,Broadwater County,Montana
46.1005965,-111.416195,4/7/1999,Broadwater County,Montana
46.1005965,-111.416195,4/7/1999,Broadwater County,Montana
46.1005965,-111.416195,4/7/1999,Broadwater County,Montana
46.1005965,-111.416195,4/7/1999,Broadwater County,Montana
46.1005965,-111.416195,4/7/1999,Broadwater County,Montana
46.1005965,-111.416195,4/7/1999,Broadwater County,Montana
46.1005965,-111.416195,4/7/1999,Broadwater County,Montana
46.1005965,-111.416195,4/7/1999,Broadwater County,Montana
46.1005965,-111.416195,4/7/1999,Broadwater County,Montana
46.1005965,-111.416195,4/7/1999,Broadwater County,Montana
46.1005965,-111.416195,4/7/1999,Broadwater County,Montana
46.1005965,-111.416195,4/7/1999,Broadwater County,Montana
46.1005965,-111.416195,4/7/1999,Broadwater County,Montana
46.1005965,-111.416195,4/7/1999,Broadwater County,Montana
41.664982,-103.113841,4/30/1994,Morrill County,Nebraska
41.664982,-103.113841,4/30/1994,Morrill County,Nebraska
41.664982,-103.113841,4/30/1994,Morrill County,Nebraska
41.664982,-103.113841,4/30/1994,Morrill County,Nebraska
41.664982,-103.113841,4/30/1994,Morrill County,Nebraska
41.664982,-103.113841,4/30/1994,Morrill County,Nebraska
41.664982,-103.113841,4/30/1994,Morrill County,Nebraska
41.664982,-103.113841,4/30/1994,Morrill County,Nebraska
41.664982,-103.113841,4/30/1994,Morrill County,Nebraska
41.664982,-103.113841,4/30/1994,Morrill County,Nebraska
42.2937045,-118.00334,1/27/1989,Malheur County,Oregon
42.2937045,-118.00334,1/27/1989,Malheur County,Oregon
42.2937045,-118.00334,1/27/1989,Malheur County,Oregon
42.2937045,-118.00334,1/27/1989,Malheur County,Oregon
42.2937045,-118.00334,1/27/1989,Malheur County,Oregon
42.2937045,-118.00334,1/27/1989,Malheur County,Oregon
42.2937045,-118.00334,1/27/1989,Malheur County,Oregon
42.2937045,-118.00334,1/27/1989,Malheur County,Oregon
38.5585505,-89.511813,11/26/2018,Clinton County,Illinois
38.5585505,-89.511813,11/26/2018,Clinton County,Illinois
38.5585505,-89.511813,11/26/2018,Clinton County,Illinois
38.5585505,-89.511813,11/26/2018,Clinton County,Illinois
38.5585505,-89.511813,11/26/2018,Clinton County,Illinois
38.5585505,-89.511813,11/26/2018,Clinton County,Illinois
38.5585505,-89.511813,11/26/2018,Clinton County,Illinois
38.5585505,-89.511813,11/26/2018,Clinton County,Illinois
38.5585505,-89.511813,11/26/2018,Clinton County,Illinois
38.5585505,-89.511813,11/26/2018,Clinton County,Illinois
38.5585505,-89.511813,11/26/2018,Clinton County,Illinois
38.5585505,-89.511813,11/26/2018,Clinton County,Illinois
38.5585505,-89.511813,11/26/2018,Clinton County,Illinois
38.5585505,-89.511813,11/26/2018,Clinton County,Illinois
38.5585505,-89.511813,11/26/2018,Clinton County,Illinois
38.5585505,-89.511813,11/26/2018,Clinton County,Illinois
38.5585505,-89.511813,11/26/2018,Clinton County,Illinois
38.5585505,-89.511813,11/26/2018,Clinton County,Illinois
38.5585505,-89.511813,11/26/2018,Clinton County,Illinois
38.5585505,-89.511813,11/26/2018,Clinton County,Illinois
38.5585505,-89.511813,11/26/2018,Clinton County,Illinois
38.5585505,-89.511813,11/26/2018,Clinton County,Illinois
38.5585505,-89.511813,11/26/2018,Clinton County,Illinois
38.5585505,-89.511813,11/26/2018,Clinton County,Illinois
38.5585505,-89.511813,11/26/2018,Clinton County,Illinois
38.5585505,-89.511813,11/26/2018,Clinton County,Illinois
38.5585505,-89.511813,11/26/2018,Clinton County,Illinois
38.5585505,-89.511813,11/26/2018,Clinton County,Illinois
38.5585505,-89.511813,11/26/2018,Clinton County,Illinois
34.0491705,-115.50652,8/9/1997,San Bernardino County,California
34.0491705,-115.50652,8/9/1997,San Bernardino County,California
34.0491705,-115.50652,8/9/1997,San Bernardino County,California
34.0491705,-115.50652,8/9/1997,San Bernardino County,California
34.0491705,-115.50652,8/9/1997,San Bernardino County,California
34.0491705,-115.50652,8/9/1997,San Bernardino County,California
34.0491705,-115.50652,8/9/1997,San Bernardino County,California
34.0491705,-115.50652,8/9/1997,San Bernardino County,California
34.0491705,-115.50652,8/9/1997,San Bernardino County,California
34.0491705,-115.50652,8/9/1997,San Bernardino County,California
34.0491705,-115.50652,8/9/1997,San Bernardino County,California
34.0491705,-115.50652,8/9/1997,San Bernardino County,California
34.0491705,-115.50652,8/9/1997,San Bernardino County,California
26.4968935,-98.772607,8/7/1985,Starr County,Texas
26.4968935,-98.772607,8/7/1985,Starr County,Texas
26.4968935,-98.772607,8/7/1985,Starr County,Texas
26.4968935,-98.772607,8/7/1985,Starr County,Texas
26.4968935,-98.772607,8/7/1985,Starr County,Texas
26.4968935,-98.772607,8/7/1985,Starr County,Texas
26.4968935,-98.772607,8/7/1985,Starr County,Texas
26.4968935,-98.772607,8/7/1985,Starr County,Texas
26.4968935,-98.772607,8/7/1985,Starr County,Texas
26.4968935,-98.772607,8/7/1985,Starr County,Texas
26.4968935,-98.772607,8/7/1985,Starr County,Texas
26.4968935,-98.772607,8/7/1985,Starr County,Texas
26.4968935,-98.772607,8/7/1985,Starr County,Texas
26.4968935,-98.772607,8/7/1985,Starr County,Texas
26.4968935,-98.772607,8/7/1985,Starr County,Texas
26.4968935,-98.772607,8/7/1985,Starr County,Texas
26.4968935,-98.772607,8/7/1985,Starr County,Texas
26.4968935,-98.772607,8/7/1985,Starr County,Texas
26.4968935,-98.772607,8/7/1985,Starr County,Texas
26.4968935,-98.772607,8/7/1985,Starr County,Texas
26.4968935,-98.772607,8/7/1985,Starr County,Texas
41.872547,-95.05835,2/17/2018,Carroll County,Iowa
41.872547,-95.05835,2/17/2018,Carroll County,Iowa
